name,id,nametype,class,mass (g),fall,year,lat,long,subclass
Aachen,1,Valid,OC,21.0,Fell,1880.0,50.775,6.08333,L5
Aarhus,2,Valid,OC,720.0,Fell,1951.0,56.18333,10.23333,H6
Abee,6,Valid,EC,107000.0,Fell,1952.0,54.21667,-113.0,EH4
Acapulco,10,Valid,PA,1914.0,Fell,1976.0,16.88333,-99.9,Acapulcoite
Achiras,370,Valid,OC,780.0,Fell,1902.0,-33.16667,-64.95,L6
Adhi Kot,379,Valid,EC,4239.0,Fell,1919.0,32.1,71.8,EH4
Adzhi-Bogdo (stone),390,Valid,OC,910.0,Fell,1949.0,44.83333,95.16667,LL3-6
Agen,392,Valid,OC,30000.0,Fell,1814.0,44.21667,0.61667,H5
Aguada,398,Valid,OC,1620.0,Fell,1930.0,-31.6,-65.23333,L6
Aguila Blanca,417,Valid,OC,1440.0,Fell,1920.0,-30.86667,-64.55,L
Aioun el Atrouss,423,Valid,AA,1000.0,Fell,1974.0,16.39806,-9.57028,Diogenite-pm
Aïr,424,Valid,OC,24000.0,Fell,1925.0,19.08333,8.38333,L6
Aire-sur-la-Lys,425,Valid,UN,,Fell,1769.0,50.66667,2.33333,Unknown
Akaba,426,Valid,OC,779.0,Fell,1949.0,29.51667,35.05,L6
Akbarpur,427,Valid,OC,1800.0,Fell,1838.0,29.71667,77.95,H4
Akwanga,432,Valid,OC,3000.0,Fell,1959.0,8.91667,8.43333,H
Akyumak,433,Valid,MIM,50000.0,Fell,1981.0,39.91667,42.81667,"Iron, IVA"
Al Rais,446,Valid,CC,160.0,Fell,1957.0,24.41667,39.51667,CR2-an
Al Zarnkh,447,Valid,OC,700.0,Fell,2001.0,13.66033,28.96,LL5
Alais,448,Valid,CC,6000.0,Fell,1806.0,44.11667,4.08333,CI1
Albareto,453,Valid,OC,2000.0,Fell,1766.0,44.65,11.01667,L/LL4
Alberta,454,Valid,OC,625.0,Fell,1949.0,2.0,22.66667,L
Alby sur Chéran,458,Valid,AA,252.0,Fell,2002.0,45.82133,6.01533,Eucrite-mmict
Aldsworth,461,Valid,OC,700.0,Fell,1835.0,51.78333,-1.78333,LL5
Aleppo,462,Valid,OC,3200.0,Fell,1873.0,36.23333,37.13333,L6
Alessandria,463,Valid,OC,908.0,Fell,1860.0,44.88333,8.75,H5
Alexandrovsky,465,Valid,OC,9251.0,Fell,1900.0,50.95,31.81667,H4
Alfianello,466,Valid,OC,228000.0,Fell,1883.0,45.26667,10.15,L6
Allegan,2276,Valid,OC,32000.0,Fell,1899.0,42.53333,-85.88333,H5
Allende,2278,Valid,CC,2000000.0,Fell,1969.0,26.96667,-105.31667,CV3
Almahata Sitta,48915,Valid,AA,3950.0,Fell,2008.0,20.74575,32.41275,Ureilite-an
Alta'ameem,2284,Valid,OC,6000.0,Fell,1977.0,35.27333,44.21556,LL5
Ambapur Nagla,2290,Valid,OC,6400.0,Fell,1895.0,27.66667,78.25,H5
Andhara,2294,Valid,UN,2700.0,Fell,1880.0,26.58333,85.56667,Stone-uncl
Andover,2295,Valid,OC,3200.0,Fell,1898.0,44.61667,-70.75,L6
Andreevka,2296,Valid,OC,600.0,Fell,1969.0,48.7,37.5,L3
Andura,2298,Valid,OC,17900.0,Fell,1939.0,20.88333,76.86667,H6
Northwest Africa 5815,50693,Valid,OC,256.8,Found,,0.0,0.0,L5
Angers,2301,Valid,OC,,Fell,1822.0,47.46667,-0.55,L6
Angra dos Reis (stone),2302,Valid,AA,1500.0,Fell,1869.0,-22.96667,-44.31667,Angrite
Ankober,2304,Valid,OC,6500.0,Fell,1942.0,9.53333,39.71667,H4
Anlong,2305,Valid,OC,2500.0,Fell,1971.0,25.15,105.18333,H5
Aomori,2313,Valid,OC,320.0,Fell,1984.0,40.81056,140.78556,L6
Appley Bridge,2318,Valid,OC,15000.0,Fell,1914.0,53.58333,-2.71667,LL6
Apt,2320,Valid,OC,3200.0,Fell,1803.0,43.86667,5.38333,L6
Arbol Solo,2325,Valid,OC,810.0,Fell,1954.0,-33.0,-66.0,H5
Archie,2329,Valid,OC,5070.0,Fell,1932.0,38.5,-94.3,H6
Arroyo Aguiar,2340,Valid,OC,7450.0,Fell,1950.0,-31.41667,-60.66667,H5
Asco,2345,Valid,OC,41.0,Fell,1805.0,42.45,9.03333,H6
Ash Creek,48954,Valid,OC,9500.0,Fell,2009.0,31.805,-97.01,L6
Ashdon,2346,Valid,OC,1300.0,Fell,1923.0,52.05,0.3,L6
Assisi,2353,Valid,OC,2000.0,Fell,1886.0,43.03333,12.55,H5
Atarra,4883,Valid,OC,1280.0,Fell,1920.0,25.25417,80.625,L4
Atemajac,4884,Valid,OC,94.2,Fell,1896.0,20.06667,-103.66667,L6
Athens,4885,Valid,OC,265.0,Fell,1933.0,34.75,-87.0,LL6
Atoka,4888,Valid,OC,1384.2,Fell,1945.0,34.31667,-96.15,L6
Aubres,4893,Valid,AA,800.0,Fell,1836.0,44.38333,5.16667,Aubrite
Aumale,4899,Valid,OC,50000.0,Fell,1865.0,36.16667,3.66667,L6
Aumieres,4900,Valid,OC,2000.0,Fell,1842.0,44.33333,3.23333,L6
Ausson,4903,Valid,OC,50000.0,Fell,1858.0,43.08333,0.58333,L5
Avanhandava,4905,Valid,OC,9330.0,Fell,1952.0,-21.46028,-49.95083,H4
Avce,4906,Valid,MIM,1230.0,Fell,1908.0,46.0,13.5,"Iron, IIAB"
Avilez,4907,Valid,OC,146.0,Fell,1855.0,25.0,-103.5,H
Awere,4910,Valid,OC,134.0,Fell,1968.0,2.71667,32.83333,L4
Aztec,4913,Valid,OC,2830.0,Fell,1938.0,36.8,-108.0,L6
Bachmut,4917,Valid,OC,18000.0,Fell,1814.0,48.6,38.0,L6
Bahjoi,4922,Valid,NMIM,10322.0,Fell,1934.0,28.48333,78.5,"Iron, IAB-sLL"
Bald Mountain,4925,Valid,OC,3700.0,Fell,1929.0,35.96667,-82.48333,L4
Baldwyn,4926,Valid,OC,345.0,Fell,1922.0,34.5,-88.66667,L6
Bali,4928,Valid,CC,1000.0,Fell,1907.0,5.38333,16.38333,CV3
Ban Rong Du,4934,Valid,UN,16700.0,Fell,1993.0,16.66667,101.18333,"Iron, ungrouped"
Bandong,4935,Valid,OC,11500.0,Fell,1871.0,-6.91667,107.6,LL6
Bansur,4936,Valid,OC,15000.0,Fell,1892.0,27.7,76.33333,L6
Banswal,4937,Valid,OC,14.0,Fell,1913.0,30.4,78.2,L5
Banten,4938,Valid,CC,629.0,Fell,1933.0,-6.33333,106.0,CM2
Barbotan,4942,Valid,OC,6400.0,Fell,1790.0,43.95,-0.05,H5
Barcelona (stone),4944,Valid,OC,,Fell,1704.0,41.36667,2.16667,OC
Barea,4946,Valid,MG,3200.0,Fell,1842.0,42.38333,-2.5,Mesosiderite-A1
Barnaul,4947,Valid,OC,23.2,Fell,1904.0,52.73333,84.08333,H5
Barntrup,4948,Valid,OC,17.0,Fell,1886.0,52.0,9.1,LL4
Baroti,4949,Valid,OC,4500.0,Fell,1910.0,31.61667,76.8,L6
Barwell,4954,Valid,OC,44000.0,Fell,1965.0,52.56528,-1.33972,L5
Bassikounou,44876,Valid,OC,29560.0,Fell,2006.0,15.78333,-5.9,H5
Baszkówka,4957,Valid,OC,15500.0,Fell,1994.0,52.03333,20.93583,L5
Bath,4974,Valid,OC,21000.0,Fell,1892.0,45.41667,-98.31667,H4
Bath Furnace,4975,Valid,OC,86000.0,Fell,1902.0,38.25,-83.75,L6
Battle Mountain,56133,Valid,OC,2900.0,Fell,2012.0,40.66813,-117.18913,L6
Bawku,4976,Valid,OC,1557.0,Fell,1989.0,11.08333,-0.18333,LL5
Baxter,4977,Valid,OC,611.0,Fell,1916.0,36.75,-93.5,L6
Beardsley,4984,Valid,OC,16000.0,Fell,1929.0,39.8,-101.2,H5
Beaver Creek,4986,Valid,OC,14000.0,Fell,1893.0,51.16667,-117.33333,H5
Beddgelert,4993,Valid,OC,794.0,Fell,1949.0,53.01667,-4.1,H5
Bells,5005,Valid,CC,375.0,Fell,1961.0,33.6,-96.46667,C2-ung
Belville,5009,Valid,OC,,Fell,1937.0,-32.33333,-64.86667,OC
Benares (a),5011,Valid,OC,3700.0,Fell,1798.0,25.36667,82.91667,LL4
Benguerir,30443,Valid,OC,25000.0,Fell,2004.0,32.25,-8.15,LL6
Beni M'hira,5018,Valid,OC,19000.0,Fell,2001.0,32.86667,10.8,L6
Benld,5021,Valid,OC,1770.5,Fell,1938.0,39.08333,-89.15,H6
Benoni,5023,Valid,OC,3880.0,Fell,1943.0,-26.16667,28.41667,H6
Bensour,5024,Valid,OC,45000.0,Fell,2002.0,30.0,-7.0,LL6
Benton,5026,Valid,OC,2840.0,Fell,1949.0,45.95,-67.55,LL6
Berduc,48975,Valid,OC,270.0,Fell,2008.0,-31.91,-58.32833,L6
Béréba,5028,Valid,AA,18000.0,Fell,1924.0,11.65,-3.65,Eucrite-mmict
Berlanguillas,5029,Valid,OC,1440.0,Fell,1811.0,41.68333,-3.8,L6
Berthoud,47355,Valid,AA,960.0,Fell,2004.0,40.30583,-105.02325,Eucrite-mmict
Bethlehem,5032,Valid,OC,13.9,Fell,1859.0,42.53333,-73.83333,H
Beuste,5034,Valid,OC,2000.0,Fell,1859.0,43.21667,-0.23333,L5
Beyrout,5035,Valid,OC,1100.0,Fell,1921.0,33.88333,35.5,LL3.8
Bhagur,5037,Valid,OC,18.0,Fell,1877.0,20.88333,74.83333,L6
Bhawad,36591,Valid,OC,678.0,Fell,2002.0,26.50833,73.11528,LL6
Bherai,5039,Valid,OC,100.0,Fell,1893.0,20.83333,71.46667,L6
Bhola,5040,Valid,OC,1047.0,Fell,1940.0,22.68333,90.65,LL3-6
Bholghati,5041,Valid,AA,2500.0,Fell,1905.0,22.08333,86.9,Howardite
Bialystok,5042,Valid,AA,4000.0,Fell,1827.0,53.1,23.2,Eucrite-pmict
Bielokrynitschie,5043,Valid,OC,1900.0,Fell,1887.0,50.13333,27.16667,H4
Bilanga,5045,Valid,AA,25000.0,Fell,1999.0,12.45,-0.08333,Diogenite
Binningup,5051,Valid,OC,488.1,Fell,1984.0,-33.15639,115.67639,H5
Birni N'konni,5056,Valid,OC,560.0,Fell,1923.0,13.76667,5.3,H4
Bishopville,5059,Valid,AA,6000.0,Fell,1843.0,34.16667,-80.28333,Aubrite
Bishunpur,5060,Valid,OC,1039.0,Fell,1895.0,25.38333,82.6,LL3.15
Bjelaja Zerkov,5063,Valid,OC,1850.0,Fell,1796.0,49.78333,30.16667,H6
Bjurböle,5064,Valid,OC,330000.0,Fell,1899.0,60.4,25.8,L/LL4
Black Moshannan Park,5065,Valid,OC,705.0,Fell,1941.0,40.91667,-78.08333,L5
Blackwell,5068,Valid,OC,2381.0,Fell,1906.0,36.83333,-97.33333,L5
Blanket,5071,Valid,OC,5100.0,Fell,1909.0,31.83333,-98.83333,L6
Blansko,5072,Valid,OC,470.0,Fell,1833.0,49.36667,16.63333,H6
Bloomington,5076,Valid,OC,67.8,Fell,1938.0,40.48,-89.00417,LL6
Bo Xian,5090,Valid,OC,7500.0,Fell,1977.0,33.83333,115.83333,LL3.9
Bocas,5093,Valid,OC,56.0,Fell,1804.0,23.0,-102.0,L6
Bogou,5097,Valid,NMIM,8800.0,Fell,1962.0,12.5,0.7,"Iron, IAB-MG"
Boguslavka,5098,Valid,MIM,256000.0,Fell,1916.0,44.55,131.63333,"Iron, IIAB"
Borgo San Donino,5110,Valid,OC,1676.0,Fell,1808.0,44.86667,10.05,LL6
Bori,5111,Valid,OC,8600.0,Fell,1894.0,21.95,78.03333,L6
Boriskino,5112,Valid,CC,1342.0,Fell,1930.0,54.23333,52.48333,CM2
Borkut,5113,Valid,OC,7000.0,Fell,1852.0,48.15,24.28333,L5
Borodino,5114,Valid,OC,500.0,Fell,1812.0,55.46667,35.86667,H5
Botschetschki,5117,Valid,OC,614.0,Fell,1823.0,51.33333,33.88333,L4
Boumdeid (2003),57168,Valid,OC,190.0,Fell,2003.0,17.71067,-11.3715,L6
Boumdeid (2011),57167,Valid,OC,3599.0,Fell,2011.0,17.17493,-11.34133,L6
Bovedy,5121,Valid,OC,5460.0,Fell,1969.0,54.56667,-6.33333,L3
Bradford Woods,5128,Valid,OC,762.0,Fell,1886.0,40.5,-80.08333,L
Braunau,5133,Valid,MIM,39000.0,Fell,1847.0,50.6,16.3,"Iron, IIAB"
Breitscheid,5134,Valid,OC,1500.0,Fell,1956.0,50.66694,8.18361,H5
Bremervörde,5135,Valid,OC,7250.0,Fell,1855.0,53.4,9.1,H/L3.9
Brient,5140,Valid,AA,219.0,Fell,1933.0,52.13333,59.31667,Eucrite-pmict
Bruderheim,5156,Valid,OC,303000.0,Fell,1960.0,53.9,-112.88333,L6
Bukhara,30448,Valid,CC,5300.0,Fell,2001.0,39.77978,64.60035,CV3
Bulls Run,5163,Valid,UN,2250.0,Fell,1964.0,,,Iron?
Bunburra Rockhole,48653,Valid,AA,324.0,Fell,2007.0,-31.35,129.19,Eucrite
Bununu,5165,Valid,AA,357.0,Fell,1942.0,10.01667,9.58333,Howardite
Bur-Gheluai,5169,Valid,OC,120000.0,Fell,1919.0,5.0,48.0,H5
Burnwell,5175,Valid,OC,1504.0,Fell,1990.0,37.62194,-82.23722,H4-an
Bursa,5177,Valid,OC,25000.0,Fell,1946.0,40.2,29.23333,L6
Buschhof,5178,Valid,OC,5000.0,Fell,1863.0,46.45,25.78333,L6
Bustee,5181,Valid,AA,1500.0,Fell,1852.0,26.78333,82.83333,Aubrite
Butsura,5183,Valid,OC,29000.0,Fell,1861.0,27.08333,84.08333,H6
Buzzard Coulee,48654,Valid,OC,41000.0,Fell,2008.0,52.996,-109.84817,H4
Cabezo de Mayo,5185,Valid,OC,25000.0,Fell,1870.0,37.98333,-1.16667,L/LL6
Cabin Creek,5186,Valid,MIM,48500.0,Fell,1886.0,35.5,-93.5,"Iron, IIIAB"
Cacak,5187,Valid,OC,212.0,Fell,1919.0,43.83889,20.33333,OC
Cali,45976,Valid,OC,478.0,Fell,2007.0,3.405,-76.51,H/L4
Calivo,5200,Valid,UN,2400.0,Fell,1916.0,11.75,122.33333,Stone-uncl
Campos Sales,5249,Valid,OC,23680.0,Fell,1991.0,-7.03333,-40.16667,L5
Çanakkale,5250,Valid,OC,4000.0,Fell,1964.0,39.8,26.6,L6
Cañellas,5251,Valid,OC,945.0,Fell,1861.0,41.25,1.66667,H4
Cangas de Onis,5252,Valid,OC,34000.0,Fell,1866.0,43.38333,-5.15,H5
Canon City,5253,Valid,OC,1400.0,Fell,1973.0,38.47028,-105.24139,H6
Cape Girardeau,5260,Valid,OC,2300.0,Fell,1846.0,37.26667,-89.58333,H6
Capilla del Monte,5264,Valid,OC,750.0,Fell,1934.0,-30.88333,-64.55,H6
Carancas,45817,Valid,OC,342.0,Fell,2007.0,-16.66444,-69.04389,H4-5
Caratash,5265,Valid,OC,8.0,Fell,1902.0,38.5,27.0,LL6
Castalia,5291,Valid,OC,7300.0,Fell,1874.0,36.08333,-78.06667,H5
Castel Berardenga,5292,Valid,UN,,Fell,1791.0,43.35,11.5,Stone-uncl
Castine,5293,Valid,OC,94.0,Fell,1848.0,44.38333,-68.75,L6
Castrovillari,5295,Valid,UN,15000.0,Fell,1583.0,39.8,16.2,Stone-uncl
Caswell County,5296,Valid,OC,1360.0,Fell,1810.0,36.5,-79.25,OC
Ceniceros,5306,Valid,OC,1025.0,Fell,1988.0,26.46667,-105.23333,L3.7
Centerville,5307,Valid,OC,45.6,Fell,1956.0,43.2,-96.91667,H5
Cereseto,5308,Valid,OC,6460.0,Fell,1840.0,45.08333,8.3,H5
Chadong,5313,Valid,OC,3700.0,Fell,1998.0,28.53333,109.31667,L6
Chail,5314,Valid,OC,0.5,Fell,1814.0,25.36667,81.66667,H6
Chainpur,5315,Valid,OC,8200.0,Fell,1907.0,25.85,83.48333,LL3.4
Chajari,5316,Valid,OC,18300.0,Fell,1933.0,-30.78333,-58.05,L5
Chandakapur,5320,Valid,OC,8800.0,Fell,1838.0,20.26667,76.01667,L5
Chandpur,5321,Valid,OC,1100.0,Fell,1885.0,27.28333,79.05,L6
Changde,5322,Valid,OC,1810.0,Fell,1977.0,29.08333,111.75,H5
Chantonnay,5325,Valid,OC,31500.0,Fell,1812.0,46.68333,1.05,L6
Charlotte,5328,Valid,MIM,4300.0,Fell,1835.0,36.16667,-87.33333,"Iron, IVA"
Charsonville,5329,Valid,OC,27000.0,Fell,1810.0,47.93333,1.56667,H6
Charwallas,5330,Valid,OC,12000.0,Fell,1834.0,29.48333,75.5,H6
Chassigny,5331,Valid,M,4000.0,Fell,1815.0,47.71667,5.36667,Martian (chassignite)
Château-Renard,5332,Valid,OC,30000.0,Fell,1841.0,47.93333,2.91667,L6
Chaves,5334,Valid,AA,2945.0,Fell,1925.0,41.93333,-7.46667,Howardite
Chela,5338,Valid,OC,2936.0,Fell,1988.0,-3.66667,32.5,H4
Chelyabinsk,57165,Valid,OC,100000.0,Fell,2013.0,54.81667,61.11667,LL5
Chergach ,47347,Valid,OC,100000.0,Fell,2007.0,23.69639,-5.01472,H5
Chernyi Bor,5339,Valid,OC,6000.0,Fell,1964.0,53.7,30.1,H4
Cherokee Springs,5340,Valid,OC,8400.0,Fell,1933.0,35.03333,-81.88333,LL6
Chervettaz,5341,Valid,OC,705.0,Fell,1901.0,46.55,6.81667,L5
Chervony Kut,5342,Valid,AA,1700.0,Fell,1939.0,50.83333,34.0,Eucrite-mmict
Chetrinahatti,5344,Valid,UN,72.0,Fell,1880.0,14.5,76.5,Stone-uncl
Chiang Khan,5345,Valid,OC,367.0,Fell,1981.0,17.9,101.63333,H6
Chicora,5349,Valid,OC,303.0,Fell,1938.0,40.93333,-79.73333,LL6
Chisenga,5355,Valid,MIM,3920.0,Fell,1988.0,-10.05944,33.395,"Iron, IIIAB"
Chitado,5356,Valid,OC,,Fell,1966.0,-17.35,13.96667,L6
Chitenay,5357,Valid,OC,4000.0,Fell,1978.0,47.47083,0.97667,L6
Cilimus,5364,Valid,OC,1600.0,Fell,1979.0,-6.95,108.1,L5
Claxton,5374,Valid,OC,1455.0,Fell,1984.0,32.1025,-81.87278,L6
Clohars,5383,Valid,OC,48.6,Fell,1822.0,,,L4
Colby (Wisconsin),5395,Valid,OC,104000.0,Fell,1917.0,44.9,-90.28333,L6
Cold Bokkeveld,5397,Valid,CC,5200.0,Fell,1838.0,-33.13333,19.38333,CM2
Coleman,5401,Valid,OC,469.0,Fell,1994.0,43.76111,-84.50778,L6
Collescipoli,5403,Valid,OC,5000.0,Fell,1890.0,42.53333,12.61667,H5
Conquista,5418,Valid,OC,20350.0,Fell,1965.0,-19.85,-47.55,H4
Cosina,5451,Valid,OC,1200.0,Fell,1844.0,21.16667,-100.86667,H5
Cranganore,5465,Valid,OC,1460.0,Fell,1917.0,10.2,76.26667,L6
Crescent,5470,Valid,CC,78.4,Fell,1936.0,35.95,-97.58333,CM2
Cronstad,5474,Valid,OC,3650.0,Fell,1877.0,-27.7,27.3,H5
Cross Roads,5476,Valid,OC,167.0,Fell,1892.0,35.63333,-78.13333,H5
Crumlin,5477,Valid,OC,4255.0,Fell,1902.0,54.61667,-6.21667,L5
Cumberland Falls,5496,Valid,AA,17000.0,Fell,1919.0,36.83333,-84.35,Aubrite
Cynthiana,5500,Valid,OC,6000.0,Fell,1877.0,38.4,-84.25,L/LL4
Dahmani,5504,Valid,OC,18000.0,Fell,1981.0,35.61667,8.83333,LL6
Dandapur,5511,Valid,OC,5650.0,Fell,1878.0,26.91667,83.96667,L6
Daniel's Kuil,5513,Valid,EC,1064.0,Fell,1868.0,-28.2,24.56667,EL6
Danville,5514,Valid,OC,2000.0,Fell,1868.0,34.4,-87.06667,L6
Darmstadt,6603,Valid,OC,100.0,Fell,1804.0,49.86667,8.65,H5
Dashoguz,6604,Valid,OC,7000.0,Fell,1998.0,41.98444,59.685,H5
Daule,51559,Valid,OC,6580.0,Fell,2008.0,-1.87089,-79.95756,L5
De Cewsville,6621,Valid,OC,340.0,Fell,1887.0,43.0,-80.0,H6
Deal,6634,Valid,OC,28.0,Fell,1829.0,40.25,-74.0,L6
Delhi,6642,Valid,OC,0.8,Fell,1897.0,28.56667,77.25,L5
Demina,6649,Valid,OC,16400.0,Fell,1911.0,51.46667,84.76667,L6
Denver,6660,Valid,OC,230.0,Fell,1967.0,39.7825,-104.93056,L6
Dergaon,6664,Valid,OC,12500.0,Fell,2001.0,26.68333,93.86667,H5
Desuri,6693,Valid,OC,25400.0,Fell,1962.0,25.73333,73.61667,H6
Devgaon,6694,Valid,OC,12000.0,Fell,2001.0,19.0,81.0,H3.8
Devri-Khera,6696,Valid,OC,1140.0,Fell,1994.0,24.225,76.525,L6
Dhajala,6698,Valid,OC,45000.0,Fell,1976.0,22.37778,71.42722,H3.8
Dharwar,6699,Valid,OC,1800.0,Fell,1848.0,14.88333,75.6,OC
Dhurmsala,7640,Valid,OC,32000.0,Fell,1860.0,32.23333,76.46667,LL6
Didim,47350,Valid,OC,3396.0,Fell,2007.0,37.35172,27.32997,H3-5
Diep River,7642,Valid,OC,1000.0,Fell,1906.0,-33.75,18.56667,L6
Distrito Quebracho,7649,Valid,OC,400.0,Fell,1957.0,-31.88333,-60.46667,H4
Djati-Pengilon,7652,Valid,OC,166000.0,Fell,1884.0,-7.5,111.5,H6
Djermaia,7656,Valid,OC,3950.0,Fell,1961.0,12.73333,15.05,H
Djoumine,7657,Valid,OC,10000.0,Fell,1999.0,36.95,9.55,H5-6
Dokachi,7658,Valid,OC,3840.0,Fell,1903.0,23.5,90.33333,H5
Dolgovoli,7659,Valid,OC,1600.0,Fell,1864.0,50.75,25.3,L6
Domanitch,7661,Valid,OC,438.0,Fell,1907.0,40.0,29.0,L5
Dong Ujimqin Qi,7706,Valid,MG,128800.0,Fell,1995.0,45.5,119.03333,Mesosiderite
Donga Kohrod,7707,Valid,OC,230.0,Fell,1899.0,21.86667,82.45,H6
Dongtai,7708,Valid,OC,5500.0,Fell,1970.0,32.91667,120.78333,LL6
Doroninsk,7718,Valid,OC,3891.0,Fell,1805.0,51.2,112.3,H5-7
Dosso,7722,Valid,OC,1250.0,Fell,1962.0,13.05,3.16667,L6
Douar Mghila,7723,Valid,OC,1161.0,Fell,1932.0,32.33333,-6.3,LL6
Dowa,7725,Valid,UN,642.0,Fell,1976.0,-13.66667,33.91667,Stone-uncl
Drake Creek,7728,Valid,OC,5000.0,Fell,1827.0,36.4,-86.5,L6
Dresden (Ontario),7731,Valid,OC,47700.0,Fell,1939.0,42.52,-82.26,H6
Dubrovnik,7736,Valid,OC,1900.0,Fell,1951.0,42.45833,18.44167,L3-6
Dunbogan,7743,Valid,OC,30.0,Fell,1999.0,-31.66667,152.83333,L6
Dundrum,7745,Valid,OC,2270.0,Fell,1865.0,52.55,-8.03333,H5
Dunhua,7749,Valid,UN,,Fell,1976.0,43.33333,128.25,Stone-uncl
Durala,7750,Valid,OC,13200.0,Fell,1815.0,30.3,76.63333,L6
Duruma,7752,Valid,OC,577.0,Fell,1853.0,-4.0,39.5,L6
Duwun,7754,Valid,OC,2117.0,Fell,1943.0,33.43333,127.26667,L6
Dwaleni,7755,Valid,OC,3230.0,Fell,1970.0,-27.2,31.31667,H4-6
Dyalpur,7757,Valid,AA,300.0,Fell,1872.0,26.25,82.0,Ureilite
Dyarrl Island,7758,Valid,MG,188.0,Fell,1933.0,-3.0,151.0,Mesosiderite-A1
Eagle,7760,Valid,EC,10000.0,Fell,1947.0,40.78167,-96.47167,EL6
Ehole,7774,Valid,OC,2400.0,Fell,1961.0,-17.3,15.83333,H5
Eichstädt,7775,Valid,OC,3000.0,Fell,1785.0,48.9,11.21667,H5
Ekeby,7776,Valid,OC,3336.0,Fell,1939.0,56.03333,13.0,H4
Ekh Khera,7777,Valid,OC,840.0,Fell,1916.0,28.26667,78.78333,H6
El Idrissia,7807,Valid,OC,10000.0,Fell,1989.0,34.41667,3.25,L6
El Paso de Aguila,45977,Valid,OC,17226.0,Fell,1977.0,25.37,-97.37,H5
El Tigre,7819,Valid,OC,5000.0,Fell,1993.0,19.96722,-103.05167,L6
Elbert,7822,Valid,OC,680.5,Fell,1998.0,39.24667,-104.58817,LL6
Elbogen,7823,Valid,MIM,107000.0,Fell,1399.0,50.18333,12.73333,"Iron, IID"
Elenovka,7824,Valid,OC,54640.0,Fell,1951.0,47.83333,37.66667,L5
Ellemeet,10019,Valid,AA,1470.0,Fell,1925.0,51.75,4.0,Diogenite
Emmaville,10033,Valid,AA,127.0,Fell,1900.0,-29.46667,151.61667,Eucrite-mmict
Enshi,10038,Valid,OC,8000.0,Fell,1974.0,30.3,109.5,H5
Ensisheim,10039,Valid,OC,127000.0,Fell,1491.0,47.86667,7.35,LL6
Épinal,10041,Valid,OC,277.0,Fell,1822.0,48.18333,6.46667,H5
Erakot,10042,Valid,CC,113.0,Fell,1940.0,19.03333,81.89167,CM2
Erevan,10043,Valid,AA,107.2,Fell,1911.0,40.3,44.5,Howardite
Ergheo,10044,Valid,OC,20000.0,Fell,1889.0,1.16667,44.16667,L5
Erxleben,10049,Valid,OC,2250.0,Fell,1812.0,52.21667,11.25,H6
Esnandes,10051,Valid,OC,1500.0,Fell,1837.0,46.25,-1.1,L6
Essebi,10055,Valid,CC,500.0,Fell,1957.0,2.88333,30.83333,C2-ung
Estherville,10059,Valid,MG,320000.0,Fell,1879.0,43.41667,-94.83333,Mesosiderite-A3/4
Farmington,10074,Valid,OC,89400.0,Fell,1890.0,39.75,-97.03333,L5
Farmville,10075,Valid,OC,56000.0,Fell,1934.0,35.55,-77.53333,H4
Favars,10078,Valid,OC,1500.0,Fell,1844.0,44.38333,2.81667,H5
Fayetteville,10079,Valid,OC,2360.0,Fell,1934.0,36.05,-94.16667,H4
Feid Chair,10080,Valid,OC,380.0,Fell,1875.0,36.88333,8.45,H4
Felix,10081,Valid,CC,3200.0,Fell,1900.0,32.53333,-87.16667,CO3.3
Fenghsien-Ku,10086,Valid,OC,82.0,Fell,1924.0,34.6,116.75,H5
Ferguson,10088,Valid,OC,220.0,Fell,1889.0,36.1,-81.41667,OC
Fermo,10091,Valid,OC,10200.0,Fell,1996.0,43.18111,13.75333,H3-5
Fisher,10107,Valid,OC,17600.0,Fell,1894.0,47.81667,-96.85,L6
Florence,10111,Valid,OC,3640.0,Fell,1922.0,30.83333,-97.76667,H3
Forest City,10119,Valid,OC,152000.0,Fell,1890.0,43.25,-93.66667,H5
Forest Vale,10120,Valid,OC,26000.0,Fell,1942.0,-33.35,146.85833,H4
Forksville,10123,Valid,OC,6067.0,Fell,1924.0,36.78333,-78.08333,L6
Forsbach,10163,Valid,OC,240.0,Fell,1900.0,50.95,7.31667,H6
Forsyth,10164,Valid,OC,16300.0,Fell,1829.0,33.01667,-83.96667,L6
Fort Flatters,10166,Valid,UN,,Fell,1944.0,28.25,7.0,Stone-uncl
Frankfort (stone),10177,Valid,AA,650.0,Fell,1868.0,34.48333,-87.83333,Howardite
Fuhe,52412,Valid,OC,23000.0,Fell,1945.0,31.47556,113.56694,L5
Fukutomi,10836,Valid,OC,11620.0,Fell,1882.0,33.18333,130.2,L5
Fünen,10838,Valid,UN,,Fell,1654.0,55.33333,10.33333,Stone-uncl
Futtehpur,10839,Valid,OC,4000.0,Fell,1822.0,25.95,80.81667,L6
Fuyang,10840,Valid,UN,2500.0,Fell,1977.0,32.9,115.9,Stone-uncl
Galapian,10846,Valid,OC,132.7,Fell,1826.0,44.3,0.4,H6
Galim (a),10848,Valid,OC,36.1,Fell,1952.0,7.05,12.43333,LL6
Galim (b),10849,Valid,EC,28.0,Fell,1952.0,7.05,12.43333,EH3/4-an
Galkiv,10850,Valid,OC,5000.0,Fell,1995.0,51.68333,30.78333,H4
Gambat,10851,Valid,OC,6400.0,Fell,1897.0,27.35,68.53333,L6
Gao-Guenie,10854,Valid,OC,,Fell,1960.0,11.65,-2.18333,H5
Garhi Yasin,10860,Valid,NMIM,380.0,Fell,1917.0,27.88333,68.53333,"Iron, IIE"
Garland,10861,Valid,AA,102.0,Fell,1950.0,41.68333,-112.13333,Diogenite-pm
Gashua,44882,Valid,OC,4162.0,Fell,1984.0,12.85,11.03333,L6
Gasseltepaoua,10866,Valid,OC,,Fell,2000.0,14.15083,-2.04167,H5
Geidam,10870,Valid,OC,725.0,Fell,1950.0,12.91667,11.91667,H5
Gifu,10914,Valid,OC,14290.0,Fell,1909.0,35.53333,136.88333,L6
Girgenti,10917,Valid,OC,18000.0,Fell,1853.0,37.31667,13.56667,L6
Git-Git,10919,Valid,OC,480.0,Fell,1947.0,9.6,9.91667,L6
Glanerbrug,10923,Valid,OC,670.0,Fell,1990.0,52.2,6.86667,L/LL5
Glanggang,10924,Valid,OC,1303.0,Fell,1939.0,-7.25,107.7,H5-6
Glasatovo,10926,Valid,OC,152000.0,Fell,1918.0,57.35,37.61667,H4
Glatton,10930,Valid,OC,767.0,Fell,1991.0,52.45972,-0.3,L6
Gnadenfrei,10936,Valid,OC,1750.0,Fell,1879.0,50.66667,16.76667,H5
Gopalpur,10948,Valid,OC,1600.0,Fell,1865.0,24.23333,89.05,H6
Gorlovka,10949,Valid,OC,3618.0,Fell,1974.0,48.28333,38.08333,H3.7
Granes,10956,Valid,OC,9000.0,Fell,1964.0,42.9,2.25,L6
Grefsheim,11196,Valid,OC,45.5,Fell,1976.0,60.66667,11.0,L5
Grimsby,50911,Valid,OC,215.0,Fell,2009.0,43.2,-79.61667,H5
Grosnaja,11206,Valid,CC,3500.0,Fell,1861.0,43.66667,45.38333,CV3
Gross-Divina,11207,Valid,OC,10500.0,Fell,1837.0,49.26667,18.71667,H5
Grossliebenthal,11208,Valid,OC,8000.0,Fell,1881.0,46.35,30.58333,L6
Grüneberg,11426,Valid,OC,1000.0,Fell,1841.0,51.93333,15.5,H4
Grzempach,11429,Valid,OC,690.0,Fell,1910.0,52.86667,16.63333,H5
Gualeguaychú,11432,Valid,OC,22000.0,Fell,1932.0,-33.0,-58.61667,H6
Guangmingshan,11435,Valid,OC,2910.0,Fell,1996.0,39.80417,122.76389,H5
Guangnan,11436,Valid,OC,,Fell,1983.0,24.1,105.0,L6
Guangrao,11437,Valid,OC,1900.0,Fell,1980.0,37.1,118.4,L6
Guareña,11439,Valid,OC,39000.0,Fell,1892.0,38.73333,-6.01667,H6
Guêa,11440,Valid,UN,1915.0,Fell,1891.0,43.76667,20.23333,Stone-uncl
Guibga,11442,Valid,OC,288.0,Fell,1972.0,13.5,-0.68333,L5
Guidder,11443,Valid,OC,968.0,Fell,1949.0,9.91667,13.98333,LL5
Gujargaon,11448,Valid,OC,2449.0,Fell,1982.0,22.98333,76.05,H5
Gujba,11449,Valid,CC,100000.0,Fell,1984.0,11.49167,11.65833,CBa
Gumoschnik,11450,Valid,OC,5700.0,Fell,1904.0,42.9,24.7,H5
Gurram Konda,11464,Valid,OC,28.0,Fell,1814.0,13.78333,78.56667,L6
Gursum,11465,Valid,OC,34650.0,Fell,1981.0,9.36667,42.41667,H4/5
Gütersloh,11466,Valid,OC,1000.0,Fell,1851.0,51.91667,8.38333,H3/4
Gyokukei,11467,Valid,OC,1320.0,Fell,1930.0,35.0,127.5,OC
Hachi-oji,11468,Valid,OC,0.2,Fell,1817.0,35.65,139.33333,H?
Hainaut,11472,Valid,OC,9000.0,Fell,1934.0,50.31667,3.73333,H3-6
Hallingeberg,11479,Valid,OC,1456.0,Fell,1944.0,57.81667,16.23333,L3.4
Hamlet,11485,Valid,OC,3710.0,Fell,1959.0,41.38333,-86.6,LL4
Haraiya,11824,Valid,AA,1000.0,Fell,1878.0,26.8,82.53333,Eucrite-mmict
Haripura,11829,Valid,CC,315.0,Fell,1921.0,28.38333,75.78333,CM2
Harleton,11830,Valid,OC,8360.0,Fell,1961.0,32.675,-94.51167,L6
Harrison County,11842,Valid,OC,680.0,Fell,1859.0,38.25,-86.16667,L6
Hashima,11848,Valid,OC,1110.6,Fell,1910.0,35.2945,136.70033,H4
Hassi-Jekna,11852,Valid,NMIM,1250.0,Fell,1890.0,28.95,0.81667,"Iron, IAB-sHL"
Hatford,11855,Valid,UN,29000.0,Fell,1628.0,51.65,-1.51667,Stone-uncl
Haverö,11859,Valid,AA,1544.0,Fell,1971.0,60.24556,22.06194,Ureilite
Hedeskoga,11869,Valid,OC,3500.0,Fell,1922.0,55.46667,13.78333,H5
Hedjaz,11870,Valid,OC,6100.0,Fell,1910.0,27.33333,35.66667,L3.7-6
Heredia,11875,Valid,OC,1000.0,Fell,1857.0,10.0,-84.1,H5
Hessle,11878,Valid,OC,20000.0,Fell,1869.0,59.85,17.66667,H5
Higashi-koen,11883,Valid,OC,750.0,Fell,1897.0,33.6,130.43333,H5
High Possil,11884,Valid,OC,4500.0,Fell,1804.0,55.9,-4.23333,L6
Hiroshima,11889,Valid,OC,414.0,Fell,2003.0,34.45,132.38333,H5
Hoima,44714,Valid,OC,167.7,Fell,2003.0,1.345,31.47278,H6
Hökmark,11893,Valid,OC,305.5,Fell,1954.0,64.43333,21.2,L4
Holbrook,11894,Valid,OC,220000.0,Fell,1912.0,34.9,-110.18333,L/LL6
Holetta,11895,Valid,UN,1415.0,Fell,1923.0,9.06667,38.41667,Stone-uncl
Homestead,11901,Valid,OC,230000.0,Fell,1875.0,41.8,-91.86667,L5
Honolulu,11904,Valid,OC,2420.0,Fell,1825.0,21.3,-157.86667,L5
Hotse,11913,Valid,OC,180.0,Fell,1956.0,35.66667,115.5,L6
Hoxie,11915,Valid,OC,266.1,Fell,1963.0,39.35,-100.45,OC
Hraschina,11916,Valid,MIM,49000.0,Fell,1751.0,46.1,16.33333,"Iron, IID"
Huaxi,54719,Valid,OC,1600.0,Fell,2010.0,26.46469,106.63241,H5
Hungen,11986,Valid,OC,112.0,Fell,1877.0,50.3,8.91667,H6
Hvittis,11989,Valid,EC,14000.0,Fell,1901.0,61.18333,22.68333,EL6
Ibbenbüren,11992,Valid,AA,2000.0,Fell,1870.0,52.28333,7.7,Diogenite
Ibitira,11993,Valid,AA,2500.0,Fell,1957.0,-20.0,-45.0,Eucrite-mmict
Ibrisim,11994,Valid,OC,,Fell,1949.0,38.0,35.0,OC
Ichkala,11995,Valid,OC,3973.0,Fell,1936.0,58.2,82.93333,H6
Idutywa,12000,Valid,OC,3457.0,Fell,1956.0,-32.1,28.33333,H5
Iguaracu,12003,Valid,OC,1200.0,Fell,1977.0,-23.2,-51.83333,H5
Ijopega,12004,Valid,OC,7330.0,Fell,1975.0,-6.03333,145.36667,H6
Indarch,12027,Valid,EC,27000.0,Fell,1891.0,39.75,46.66667,EH4
Independence,12028,Valid,OC,880.0,Fell,1917.0,39.08333,-94.4,L6
Inner Mongolia,12037,Valid,OC,3000.0,Fell,1963.0,41.0,112.0,L6
Innisfree,12039,Valid,OC,4576.0,Fell,1977.0,53.415,-111.3375,L5
Ipiranga,12043,Valid,OC,7000.0,Fell,1972.0,-25.5,-54.5,H6
Ishinga,12049,Valid,OC,1300.0,Fell,1954.0,-8.93333,33.8,H
Isthilart,12053,Valid,OC,3050.0,Fell,1928.0,-31.18333,-57.95,H5
Itapicuru-Mirim,12056,Valid,OC,2024.0,Fell,1879.0,-3.4,-44.33333,H5
Itqiy,12058,Valid,EC,4720.0,Fell,1990.0,26.59083,-12.95217,EH7-an
Ivuna,12063,Valid,CC,704.5,Fell,1938.0,-8.41667,32.43333,CI1
Jackalsfontein,12065,Valid,OC,48000.0,Fell,1903.0,-32.5,21.9,L6
Jajh deh Kot Lalu,12067,Valid,EC,973.0,Fell,1926.0,26.75,68.41667,EL6
Jalanash,12068,Valid,AA,700.0,Fell,1990.0,,,Ureilite
Jalandhar,12069,Valid,UN,1967.0,Fell,1621.0,31.0,75.0,Iron
Jamkheir,12072,Valid,OC,22.0,Fell,1866.0,18.75,75.33333,H6
Jartai,12074,Valid,OC,20500.0,Fell,1979.0,39.7,105.8,L6
Jelica,12078,Valid,OC,34000.0,Fell,1889.0,43.83333,20.44167,LL6
Jemlapur,12079,Valid,OC,450.0,Fell,1901.0,,,L6
Jesenice,51589,Valid,OC,3667.0,Fell,2009.0,46.42137,14.05217,L6
Jhung,12085,Valid,OC,5900.0,Fell,1873.0,31.3,72.38333,L5
Jiange,12086,Valid,OC,222.0,Fell,1964.0,31.91667,104.91667,H5
Jianshi,12087,Valid,MIM,600000.0,Fell,1890.0,30.80833,109.5,"Iron, IIIAB"
Jilin,12171,Valid,OC,4000000.0,Fell,1976.0,44.05,126.16667,H5
Jodiya,47362,Valid,OC,100.0,Fell,2006.0,22.68,70.31333,L5
Jodzie,12173,Valid,AA,30.0,Fell,1877.0,55.7,24.4,Howardite
Johnstown,12198,Valid,AA,40300.0,Fell,1924.0,40.35,-104.9,Diogenite
Jolomba,12199,Valid,OC,483.0,Fell,1974.0,-11.85,15.83333,LL6
Jonzac,12202,Valid,AA,5000.0,Fell,1819.0,45.43333,-0.45,Eucrite-mmict
Juancheng,12203,Valid,OC,100000.0,Fell,1997.0,35.5,115.41667,H5
Judesegeri,12207,Valid,OC,680.0,Fell,1876.0,12.85,76.8,H6
Jumapalo,12209,Valid,OC,32490.0,Fell,1984.0,-7.71667,111.2,L6
Junan,12210,Valid,OC,950.0,Fell,1976.0,35.2,118.8,L6
Juromenha,12213,Valid,MIM,25250.0,Fell,1968.0,38.74028,-7.27,"Iron, IIIAB"
Juvinas,12214,Valid,AA,91000.0,Fell,1821.0,44.71667,4.3,Eucrite-mmict
Kaba,12218,Valid,CC,3000.0,Fell,1857.0,47.35,21.3,CV3
Kabo,12220,Valid,OC,13400.0,Fell,1971.0,11.85,8.21667,H4
Kadonah,12221,Valid,OC,89.0,Fell,1822.0,27.08333,78.33333,H6
Kaee,12222,Valid,OC,230.0,Fell,1838.0,27.25,79.96667,H5
Kagarlyk,12227,Valid,OC,1900.0,Fell,1908.0,49.86667,30.83333,L6
Kaidun,12228,Valid,CC,2000.0,Fell,1980.0,15.0,48.3,CR2
Kainsaz,12229,Valid,CC,200000.0,Fell,1937.0,55.43333,53.25,CO3.2
Kakangari,12230,Valid,AOC,350.0,Fell,1890.0,12.38333,78.51667,K3
Kakowa,12231,Valid,OC,577.0,Fell,1858.0,45.13333,21.66667,L6
Kalaba,12232,Valid,OC,950.0,Fell,1951.0,-6.83333,29.5,H4
Kalumbi,12236,Valid,OC,4500.0,Fell,1879.0,17.83333,73.98333,L6
Kamalpur,12238,Valid,OC,2770.0,Fell,1942.0,26.03333,81.46667,L6
Kamiomi,12240,Valid,OC,448.0,Fell,1913.0,36.04167,139.95667,H5
Kamsagar,12241,Valid,OC,1293.0,Fell,1902.0,14.18333,75.8,L6
Kandahar (Afghanistan),12243,Valid,OC,299.0,Fell,1959.0,31.6,65.78333,L6
Kangean,12245,Valid,OC,1630.0,Fell,1908.0,-7.0,115.5,H5
Kangra Valley,12246,Valid,OC,400.0,Fell,1897.0,32.08333,76.3,H5
Kapoeta,12251,Valid,AA,11355.0,Fell,1942.0,4.7,33.63333,Howardite
Kaprada,47357,Valid,OC,1600.0,Fell,2004.0,20.33916,73.22329,L5/6
Kaptal-Aryk,12253,Valid,OC,3500.0,Fell,1937.0,42.45,73.36667,L6
Karakol,12256,Valid,OC,3000.0,Fell,1840.0,47.21667,81.01667,LL6
Karatu,12258,Valid,OC,2220.0,Fell,1963.0,-3.5,35.58333,LL6
Karewar,12260,Valid,OC,180.0,Fell,1949.0,12.9,7.15,L6
Karkh,12262,Valid,OC,22000.0,Fell,1905.0,27.8,67.16667,L6
Karloowala,12263,Valid,OC,2950.0,Fell,1955.0,31.58333,71.6,L6
Karoonda,12264,Valid,CC,41730.0,Fell,1930.0,-35.08333,139.91667,CK4
Kasamatsu,12266,Valid,OC,710.0,Fell,1938.0,35.36667,136.76667,H
Kasauli,30740,Valid,OC,16820.0,Fell,2003.0,29.58333,77.58333,H4
Katagum,35465,Valid,OC,1500.0,Fell,1999.0,11.33333,10.08333,L6
Kavarpura,47351,Valid,NMIM,6800.0,Fell,2006.0,25.14333,75.81333,"Iron, IIE-an"
Kayakent,12268,Valid,MIM,85000.0,Fell,1961.0,39.26333,31.78,"Iron, IIIAB"
Kediri,12270,Valid,OC,3300.0,Fell,1940.0,-7.75,112.01667,L4
Kemer,53654,Valid,OC,5760.0,Fell,2008.0,36.54194,29.41822,L4
Kendleton,12275,Valid,OC,6937.0,Fell,1939.0,29.45,-96.0,L4
Kendrapara,12276,Valid,OC,6669.2,Fell,2003.0,20.4625,86.70278,H4-5
Kerilis,12282,Valid,OC,5000.0,Fell,1874.0,48.4,-3.3,H5
Kernouve,12284,Valid,OC,80000.0,Fell,1869.0,48.11667,-3.08333,H6
Kesen,12286,Valid,OC,135000.0,Fell,1850.0,38.98333,141.61667,H4
Khairpur,12288,Valid,EC,13600.0,Fell,1873.0,29.53333,72.3,EL6
Khanpur,12289,Valid,OC,3698.0,Fell,1932.0,25.55,83.11667,LL5
Kharkov,12291,Valid,OC,1500.0,Fell,1787.0,50.625,35.075,L6
Kheragur,12294,Valid,OC,450.0,Fell,1860.0,26.95,77.88333,L6
Khetri,12296,Valid,OC,100.0,Fell,1867.0,28.01667,75.81667,H6
Khmelevka,12297,Valid,OC,6109.0,Fell,1929.0,56.75,75.33333,L5
Khohar,12298,Valid,OC,9700.0,Fell,1910.0,25.1,81.53333,L3.6
Khor Temiki,12299,Valid,AA,3200.0,Fell,1932.0,16.0,36.0,Aubrite
Kidairat,12300,Valid,OC,100000.0,Fell,1983.0,14.0,28.0,H6
Kiel,12301,Valid,OC,737.6,Fell,1962.0,54.4,10.15,L6
Kiffa,12303,Valid,OC,1500.0,Fell,1970.0,16.58333,-11.33333,H5
Kijima (1906),12305,Valid,UN,331.0,Fell,1906.0,36.85,138.38333,Stone-uncl
Kikino,12306,Valid,OC,195.0,Fell,1809.0,55.0,34.0,H6
Kilabo,12307,Valid,OC,19000.0,Fell,2002.0,12.76667,9.8,LL6
Kilbourn,12308,Valid,OC,772.0,Fell,1911.0,43.58333,-89.6,H5
Killeter,12309,Valid,OC,140.0,Fell,1844.0,54.66667,-7.66667,H6
Kingai,12316,Valid,OC,67.4,Fell,1967.0,11.63333,24.68333,H6
Kirbyville,12321,Valid,AA,97.7,Fell,1906.0,30.75,-95.95,Eucrite-mmict
Kisvarsány,12325,Valid,OC,1550.0,Fell,1914.0,48.16667,22.30833,L6
Kitchener,12326,Valid,OC,202.6,Fell,1998.0,43.38333,-80.38333,L6
Klein-Wenden,12332,Valid,OC,3250.0,Fell,1843.0,51.6,10.8,H6
Knyahinya,12335,Valid,OC,500000.0,Fell,1866.0,48.9,22.4,L/LL5
Kobe,12336,Valid,CC,136.0,Fell,1999.0,34.73333,135.16667,CK4
Kokubunji,12342,Valid,OC,11510.0,Fell,1986.0,34.3,133.95,L6
Komagome,12343,Valid,UN,238.0,Fell,1926.0,35.73333,139.75,Iron
Konovo,12344,Valid,OC,90.0,Fell,1931.0,42.51667,26.16667,LL5
Košice,53810,Valid,OC,4300.0,Fell,2010.0,48.76367,21.17633,H5
Krähenberg,12353,Valid,OC,16500.0,Fell,1869.0,49.32694,7.46472,LL5
Krasnoi-Ugol,12355,Valid,OC,2440.0,Fell,1829.0,54.03333,40.9,L6
Krasnyi Klyuch,12357,Valid,OC,4000.0,Fell,1946.0,54.33333,56.08333,H5
Krutikha,12363,Valid,OC,845.2,Fell,1906.0,56.8,77.0,OC
Krymka,12364,Valid,OC,50000.0,Fell,1946.0,47.83333,30.76667,LL3.2
Kukschin,12368,Valid,OC,2250.0,Fell,1938.0,51.15,31.7,L6
Kulak,12369,Valid,OC,453.6,Fell,1961.0,30.73111,66.80222,L5
Kuleschovka,12370,Valid,OC,6000.0,Fell,1811.0,50.75,33.5,L6
Kulp,12373,Valid,OC,3719.0,Fell,1906.0,41.11667,45.0,H6
Kunashak,12377,Valid,OC,200000.0,Fell,1949.0,55.78333,61.36667,L6
Kunya-Urgench,12379,Valid,OC,1100000.0,Fell,1998.0,42.25,59.2,H5
Kushiike,12381,Valid,OC,4460.0,Fell,1920.0,37.05,138.38333,OC
Kusiali,12382,Valid,OC,5.0,Fell,1860.0,29.68333,78.38333,L6
Kutais,12383,Valid,OC,23.0,Fell,1977.0,44.51667,39.3,H5
Kuttippuram,12384,Valid,OC,45000.0,Fell,1914.0,10.83333,76.03333,L6
Kuznetzovo,12385,Valid,OC,4047.0,Fell,1932.0,55.2,75.33333,L6
Kyushu,12390,Valid,OC,45000.0,Fell,1886.0,32.03333,130.63333,L6
La Bécasse,12392,Valid,OC,2800.0,Fell,1879.0,47.08333,1.75,L6
La Charca,12394,Valid,OC,399.0,Fell,1878.0,20.66667,-101.28333,OC
La Colina,12395,Valid,OC,2000.0,Fell,1924.0,-37.33333,-61.53333,H5
La Criolla,12396,Valid,OC,45000.0,Fell,1985.0,-31.23333,-58.16667,L6
Laborel,12408,Valid,OC,3833.0,Fell,1871.0,44.28333,5.58333,H5
Lahrauli,12433,Valid,AA,900.0,Fell,1955.0,26.78333,82.71667,Ureilite
L'Aigle,12434,Valid,OC,37000.0,Fell,1803.0,48.76667,0.63333,L6
Cumulus Hills 04075,32531,Valid,P,9.6,Found,2003.0,,,Pallasite
Lakangaon,12435,Valid,AA,212.5,Fell,1910.0,21.86667,76.03333,Eucrite-mmict
Lalitpur,12451,Valid,OC,372.0,Fell,1887.0,24.45,78.56667,L6
Lancé,12455,Valid,CC,51700.0,Fell,1872.0,47.7,1.06667,CO3.5
Lancon,12456,Valid,OC,7000.0,Fell,1897.0,43.75,5.11667,H6
Långhalsen,12461,Valid,OC,2300.0,Fell,1947.0,58.85,16.73333,L6
Lanxi,12464,Valid,OC,1282.0,Fell,1986.0,46.24167,126.19611,L6
Lanzenkirchen,12465,Valid,OC,7000.0,Fell,1925.0,47.75,16.23333,L4
Laochenzhen,12466,Valid,OC,14250.0,Fell,1987.0,33.13333,115.16667,H5
Launton,12740,Valid,OC,1060.0,Fell,1830.0,51.9,-1.11667,L6
Lavrentievka,12743,Valid,OC,800.0,Fell,1938.0,52.45,51.56667,L6
Le Pressoir,12748,Valid,OC,3000.0,Fell,1845.0,47.16667,0.43333,H5
Le Teilleul,12749,Valid,AA,780.0,Fell,1845.0,48.53333,-0.86667,Howardite
Leedey,12755,Valid,OC,51500.0,Fell,1943.0,35.88333,-99.33333,L6
Leeuwfontein,12756,Valid,OC,460.0,Fell,1912.0,-25.66667,28.36667,L6
Leighlinbridge,12759,Valid,OC,271.4,Fell,1999.0,52.66667,-6.96667,L6
Leighton,12760,Valid,OC,877.0,Fell,1907.0,34.58333,-87.5,H5
Leonovka,12765,Valid,OC,700.0,Fell,1900.0,52.26667,32.85,L6
Les Ormes,12769,Valid,OC,125.0,Fell,1857.0,48.35,3.25,L6
Lesves,12772,Valid,OC,2000.0,Fell,1896.0,50.36667,4.73333,L6
Lichtenberg,14646,Valid,OC,4000.0,Fell,1973.0,-26.15,26.18333,H6
Lillaverke,14650,Valid,OC,6862.0,Fell,1930.0,56.65,15.86667,H5
Limerick,14652,Valid,OC,50000.0,Fell,1813.0,52.56667,-8.78333,H5
Linum,14655,Valid,OC,1862.0,Fell,1854.0,52.75,12.9,L6
Lishui,14659,Valid,OC,498.0,Fell,1978.0,31.63333,118.98333,L5
Lissa,14661,Valid,OC,12800.0,Fell,1808.0,50.2,14.85,L6
Little Piney,14664,Valid,OC,491.0,Fell,1839.0,37.91667,-92.08333,L5
Lixna,14670,Valid,OC,5213.0,Fell,1820.0,56.0,26.43333,H4
Lodran,14675,Valid,PA,1000.0,Fell,1868.0,29.53333,71.8,Lodranite
Lohawat,14678,Valid,AA,40000.0,Fell,1994.0,26.96556,72.62667,Howardite
Lorton,52843,Valid,OC,329.7,Fell,2010.0,38.70066,-77.21163,L6
Los Martinez,14708,Valid,OC,25.0,Fell,1894.0,38.0,-0.83333,L6
Lost City,14711,Valid,OC,17000.0,Fell,1970.0,36.00833,-95.15,H5
Louisville,14716,Valid,OC,1300.0,Fell,1977.0,38.25,-85.75,L6
Łowicz,14718,Valid,MG,59000.0,Fell,1935.0,52.0,19.91667,Mesosiderite-A3
Lua,14721,Valid,OC,9241.0,Fell,1926.0,24.95,75.15,L5
Lucé,14724,Valid,OC,3500.0,Fell,1768.0,47.85,0.48333,L6
Lumpkin,14753,Valid,OC,340.0,Fell,1869.0,32.03333,-84.76667,L6
Lunan,14754,Valid,OC,2520.0,Fell,1980.0,24.8,103.3,H6
Lundsgård,14755,Valid,OC,11000.0,Fell,1889.0,56.21667,13.03333,L6
Luotolax,14756,Valid,AA,885.0,Fell,1813.0,61.2,27.7,Howardite
Luponnas,14757,Valid,OC,14000.0,Fell,1753.0,46.21667,5.0,H3-5
Lusaka,14759,Valid,UN,,Fell,1951.0,-7.21667,29.43333,Unknown
Mabwe-Khoywa,14764,Valid,OC,540.0,Fell,1937.0,19.0,97.0,L5
Macau,15370,Valid,OC,1500.0,Fell,1836.0,-5.2,-36.66667,H5
Machinga,15371,Valid,OC,93200.0,Fell,1981.0,-15.21222,35.24222,L6
Macibini,15372,Valid,AA,1995.0,Fell,1936.0,-28.83333,31.95,Eucrite-pmict
Madhipura,15379,Valid,OC,1000.0,Fell,1950.0,25.91667,86.36667,L
Madiun,15380,Valid,OC,400.0,Fell,1935.0,-7.75,111.53333,L6
Madrid,15382,Valid,OC,400.0,Fell,1896.0,40.41667,-3.71667,L6
Mafra,15383,Valid,OC,600.0,Fell,1941.0,-26.16667,-49.93333,L3-4
Magnesia,15386,Valid,NMIM,5000.0,Fell,1899.0,37.86667,27.51667,"Iron, IAB-sHL"
Magombedze,15387,Valid,OC,666.6,Fell,1990.0,-19.48333,31.65,H3-5
Mahadevpur,47361,Valid,OC,70500.0,Fell,2007.0,27.66667,95.78333,H4/5
Maigatari-Danduma,30751,Valid,OC,4629.0,Fell,2004.0,12.83333,9.38333,H5/6
Malaga,15393,Valid,OC,150.0,Fell,1933.0,32.21667,-104.0,OC
Malakal,15394,Valid,OC,2000.0,Fell,1970.0,9.5,31.75,L5
Malampaka,15395,Valid,OC,470.0,Fell,1930.0,-3.13333,33.51667,H
Malotas,15397,Valid,OC,,Fell,1931.0,-28.93333,-63.23333,H5
Malvern,15400,Valid,AA,807.0,Fell,1933.0,-29.45,26.76667,Eucrite-pmict
Mamra Springs,15401,Valid,OC,1000.0,Fell,1927.0,45.21667,62.08333,L6
Manbhoom,15402,Valid,OC,1700.0,Fell,1863.0,23.05,86.7,LL6
Manegaon,15403,Valid,AA,50.0,Fell,1843.0,20.96667,76.1,Diogenite
Mangwendi,15405,Valid,OC,22300.0,Fell,1934.0,-17.65,31.6,LL6
Manych,15409,Valid,OC,3555.0,Fell,1951.0,45.81667,44.63333,LL3.4
Mardan,15414,Valid,OC,4500.0,Fell,1948.0,34.23333,72.08333,H5
Maria Linden,15418,Valid,OC,114.0,Fell,1925.0,,,L4
Mariaville,15419,Valid,UN,340.0,Fell,1898.0,42.71667,-99.38333,Iron
Maribo,48973,Valid,CC,25.81,Fell,2009.0,54.76183,11.46745,CM2
Maridi,15421,Valid,OC,3200.0,Fell,1941.0,4.66667,29.25,H6
Marilia,15422,Valid,OC,2500.0,Fell,1971.0,-22.25,-49.93333,H4
Marion (Iowa),15424,Valid,OC,28400.0,Fell,1847.0,41.9,-91.6,L6
Marjalahti,15426,Valid,P,45000.0,Fell,1902.0,61.5,30.5,"Pallasite, PMG"
Marmande,15429,Valid,OC,3000.0,Fell,1848.0,44.5,0.15,L5
Maromandia,15430,Valid,OC,6000.0,Fell,2002.0,-14.2,48.1,L6
Maryville,15436,Valid,OC,1443.0,Fell,1983.0,35.8,-84.1,L6
Mascombes,15438,Valid,OC,1000.0,Fell,1836.0,45.36667,1.86667,L6
Mason Gully,53653,Valid,OC,24.54,Fell,2010.0,0.0,0.0,H5
Mässing,15443,Valid,AA,1600.0,Fell,1803.0,48.13333,12.61667,Howardite
Mauerkirchen,15446,Valid,OC,19000.0,Fell,1768.0,48.18333,13.13333,L6
Mauritius,15447,Valid,OC,220.0,Fell,1801.0,-20.0,57.0,L6
Mayo Belwa,15451,Valid,AA,4850.0,Fell,1974.0,8.96667,12.08333,Aubrite
Mazapil,15453,Valid,NMIM,4000.0,Fell,1885.0,24.68333,-101.68333,"Iron, IAB-sLL"
Maziba,15454,Valid,OC,4975.0,Fell,1942.0,-1.21667,30.0,L6
Mbale,15455,Valid,OC,150000.0,Fell,1992.0,1.06667,34.16667,L5/6
Medanitos,15467,Valid,AA,31.0,Fell,1953.0,-27.25,-67.5,Eucrite-cm
Meerut,15469,Valid,OC,22.0,Fell,1861.0,29.01667,77.8,H5
Meester-Cornelis,15470,Valid,OC,24750.0,Fell,1915.0,-6.23333,106.88333,H5
Menow,15485,Valid,OC,10500.0,Fell,1862.0,53.18333,13.15,H4
Menziswyl,15486,Valid,OC,28.9,Fell,1903.0,46.81867,7.21817,L5
Mern,15489,Valid,OC,4000.0,Fell,1878.0,55.05,12.06667,L6
Meru,15491,Valid,OC,6000.0,Fell,1945.0,0.0,37.66667,LL6
Merua,15492,Valid,OC,71400.0,Fell,1920.0,25.48333,81.98333,H5
Messina,15495,Valid,OC,2405.0,Fell,1955.0,38.18333,15.56667,L5
Meuselbach,16626,Valid,OC,870.0,Fell,1897.0,50.58333,11.1,L6
Mezel,16627,Valid,OC,1300.0,Fell,1949.0,45.76667,3.25,L6
Mezö-Madaras,16628,Valid,OC,22700.0,Fell,1852.0,46.5,25.73333,L3.7
Mhow,16629,Valid,OC,350.0,Fell,1827.0,25.9,83.61667,L6
Mianchi,16631,Valid,OC,1100.0,Fell,1980.0,34.8,111.7,H5
Middlesbrough,16632,Valid,OC,1600.0,Fell,1881.0,54.56667,-1.16667,L6
Mifflin,52090,Valid,OC,3584.0,Fell,2010.0,42.9075,-90.36556,L5
Mighei,16634,Valid,CC,8000.0,Fell,1889.0,48.06667,30.96667,CM2
Mihonoseki,16635,Valid,OC,6380.0,Fell,1992.0,35.56833,133.22,L6
Mike,16636,Valid,OC,224.2,Fell,1944.0,46.23333,17.53333,L6
Milena,16640,Valid,OC,10000.0,Fell,1842.0,46.18333,16.1,L6
Millbillillie,16643,Valid,AA,330000.0,Fell,1960.0,-26.45,120.36667,Eucrite-mmict
Miller (Arkansas),16645,Valid,OC,16700.0,Fell,1930.0,35.4,-92.05,H5
Minamino,16692,Valid,OC,1040.0,Fell,1632.0,35.07833,136.93333,L
Mineo,16696,Valid,P,42.0,Fell,1826.0,37.28333,14.7,Pallasite
Min-Fan-Zhun,16697,Valid,OC,5500.0,Fell,1952.0,32.33333,120.66667,LL6
Minnichhof,16700,Valid,OC,550.0,Fell,1905.0,47.7,16.6,OC
Mirzapur,16701,Valid,OC,8510.0,Fell,1910.0,25.68333,83.25,L5
Misshof,16703,Valid,OC,5800.0,Fell,1890.0,56.66667,23.0,H5
Mjelleim,16707,Valid,OC,100.7,Fell,1898.0,61.73333,5.93333,H
Mocs,16709,Valid,OC,300000.0,Fell,1882.0,46.8,24.03333,L5-6
Modoc (1905),16711,Valid,OC,35000.0,Fell,1905.0,38.5,-101.1,L6
Mokoia,16713,Valid,CC,4500.0,Fell,1908.0,-39.63333,174.4,CV3
Molina,16715,Valid,OC,144000.0,Fell,1858.0,38.11667,-1.16667,H5
Molteno,16717,Valid,AA,150.0,Fell,1953.0,-31.25,26.46667,Howardite
Monahans (1998),16719,Valid,OC,2587.0,Fell,1998.0,31.60833,-102.85833,H5
Monroe,16720,Valid,OC,8600.0,Fell,1849.0,35.25,-80.5,H4
Monte das Fortes,16725,Valid,OC,4885.0,Fell,1950.0,38.01667,-8.25,L5
Monte Milone,16726,Valid,OC,3130.0,Fell,1846.0,43.26667,13.35,L5
Montferré,16727,Valid,OC,149000.0,Fell,1923.0,43.39056,1.9625,H5
Montlivault,16729,Valid,OC,500.0,Fell,1838.0,47.63333,1.58333,L6
Monze,16733,Valid,OC,,Fell,1950.0,-15.96667,27.35,L6
Moore County,16736,Valid,AA,1880.0,Fell,1913.0,35.41667,-79.38333,Eucrite-cm
Mooresfort,16737,Valid,OC,3520.0,Fell,1810.0,52.45,-8.33333,H5
Moorleah,16738,Valid,OC,8887.5,Fell,1930.0,-40.975,145.6,L6
Moradabad,16740,Valid,OC,70.0,Fell,1808.0,28.78333,78.83333,L6
Morávka,16742,Valid,OC,633.0,Fell,2000.0,49.6,18.53333,H5
Mornans,16747,Valid,OC,1300.0,Fell,1875.0,44.6,5.13333,H5
Moss,36592,Valid,CC,3763.0,Fell,2006.0,59.43333,10.7,CO3.6
Moti-ka-nagla,16759,Valid,OC,1500.0,Fell,1868.0,26.83333,77.33333,H6
Motta di Conti,16762,Valid,OC,9150.0,Fell,1868.0,45.2,8.5,H4
Mount Browne,16766,Valid,OC,11300.0,Fell,1902.0,-29.8,141.7,H6
Mount Tazerzait,16804,Valid,OC,110000.0,Fell,1991.0,18.7,4.8,L5
Mount Vaisi,16805,Valid,UN,17000.0,Fell,1637.0,44.08333,6.86667,Stone-uncl
Mtola,16820,Valid,UN,1100.0,Fell,1944.0,-11.5,33.5,Stone-uncl
Muddoor,16841,Valid,OC,4400.0,Fell,1865.0,12.63333,77.01667,L5
Mulletiwu,16851,Valid,OC,25.5,Fell,1795.0,9.33333,80.83333,L
Muraid,16874,Valid,OC,4703.0,Fell,1924.0,24.5,90.21667,L6
Murchison,16875,Valid,CC,100000.0,Fell,1969.0,-36.61667,145.2,CM2
Murray,16882,Valid,CC,12600.0,Fell,1950.0,36.6,-88.1,CM2
Muzaffarpur,16885,Valid,NMIM,1245.0,Fell,1964.0,26.13333,85.53333,"Iron, IAB-sHL"
Myhee Caunta,16887,Valid,OC,,Fell,1842.0,23.05,72.63333,OC
Nadiabondi,16889,Valid,OC,8165.0,Fell,1956.0,12.0,1.0,H5
Nagai,16890,Valid,OC,1810.0,Fell,1922.0,38.12167,140.06167,L6
Nagaria,16892,Valid,AA,20.0,Fell,1875.0,26.98333,78.21667,Eucrite-cm
Nagy-Borové,16893,Valid,OC,6100.0,Fell,1895.0,49.16667,19.5,L5
Nakhla,16898,Valid,M,10000.0,Fell,1911.0,31.31667,30.35,Martian (nakhlite)
Nakhon Pathom,16899,Valid,OC,23200.0,Fell,1923.0,13.73333,100.08333,L6
Nammianthal,16902,Valid,OC,4500.0,Fell,1886.0,12.28333,79.2,H5
Nan Yang Pao,16903,Valid,OC,52900.0,Fell,1917.0,35.66667,103.5,L6
Nanjemoy,16904,Valid,OC,7500.0,Fell,1825.0,38.41667,-77.16667,H6
Nantong,16907,Valid,OC,529.0,Fell,1984.0,32.11667,121.8,H6
Naoki,16908,Valid,OC,17000.0,Fell,1928.0,19.25,77.0,H6
Naragh,16909,Valid,OC,2700.0,Fell,1974.0,33.75,51.5,H6
Narellan,16912,Valid,OC,367.5,Fell,1928.0,-34.05,150.68889,L6
Narni,16914,Valid,UN,,Fell,920.0,42.51667,12.51667,Stone-uncl
Nassirah,16922,Valid,OC,347.0,Fell,1936.0,-21.73333,165.9,H4
Natal,16923,Valid,UN,1.4,Fell,1973.0,,,Stone-uncl
Nawapali,16927,Valid,CC,105.0,Fell,1890.0,21.25,83.66667,CM2
Neagari,16934,Valid,OC,420.0,Fell,1995.0,36.44917,136.46528,L6
Nedagolla,16935,Valid,UN,4500.0,Fell,1870.0,18.68333,83.48333,"Iron, ungrouped"
Nejo,16941,Valid,OC,2450.0,Fell,1970.0,9.5,35.33333,L6
Nerft,16945,Valid,OC,10250.0,Fell,1864.0,56.5,21.5,L6
Neuschwanstein,16950,Valid,EC,6189.0,Fell,2002.0,47.525,10.80833,EL6
New Concord,16953,Valid,OC,230000.0,Fell,1860.0,40.0,-81.76667,L6
New Halfa,16954,Valid,OC,12000.0,Fell,1994.0,15.36667,35.68333,L4
New Orleans,16960,Valid,OC,19256.0,Fell,2003.0,29.94718,-90.10976,H5
Ngawi,16966,Valid,OC,1393.0,Fell,1883.0,-7.45,111.41667,LL3.6
N'Goureyma,16968,Valid,UN,37500.0,Fell,1900.0,13.85,-4.38333,"Iron, ungrouped"
Nicorps,16970,Valid,UN,,Fell,1750.0,49.03333,-1.43333,Stone-uncl
Niger (L6),16974,Valid,OC,3.3,Fell,1967.0,,,L6
Niger (LL6),16975,Valid,OC,3.3,Fell,1967.0,,,LL6
Nikolaevka,16976,Valid,OC,3996.0,Fell,1935.0,52.45,78.63333,H4
Nikolskoe,16977,Valid,OC,6000.0,Fell,1954.0,56.11667,37.33333,L4
Ningbo,16980,Valid,MIM,14250.0,Fell,1975.0,29.86667,121.48333,"Iron, IVA"
Ningqiang,16981,Valid,CC,4610.0,Fell,1983.0,32.925,105.90667,C3-ung
Nio,16982,Valid,OC,467.0,Fell,1897.0,34.2,131.56667,H3-4
N'Kandhla,16983,Valid,MIM,17200.0,Fell,1912.0,-28.56667,30.7,"Iron, IID"
Nobleborough,16984,Valid,AA,2300.0,Fell,1823.0,44.08333,-69.48333,Eucrite-pmict
Noblesville,16985,Valid,OC,483.7,Fell,1991.0,40.08528,-86.055,H4-6
Nogata,16988,Valid,OC,472.0,Fell,860.0,33.725,130.75,L6
Nogoya,16989,Valid,CC,4000.0,Fell,1879.0,-32.36667,-59.83333,CM2
Norfork,16994,Valid,MIM,1050.0,Fell,1918.0,36.21667,-92.26667,"Iron, IIIAB"
Norton County,17922,Valid,AA,1100000.0,Fell,1948.0,39.68333,-99.86667,Aubrite
Noventa Vicentina,17930,Valid,OC,177.0,Fell,1971.0,45.29167,11.52722,H4
Novo-Urei,17933,Valid,AA,1900.0,Fell,1886.0,54.81667,46.0,Ureilite
Novy-Ergi,17934,Valid,UN,,Fell,1662.0,58.55,31.33333,Stone-uncl
Novy-Projekt,17935,Valid,OC,1001.0,Fell,1908.0,56.0,22.0,OC
Noyan-Bogdo,17936,Valid,OC,250.0,Fell,1933.0,42.91667,102.46667,L6
Nuevo Mercurio,17938,Valid,OC,50000.0,Fell,1978.0,24.3,-102.13333,H5
Nulles,17959,Valid,OC,5000.0,Fell,1851.0,41.63333,0.75,H6
Numakai,17960,Valid,OC,363.0,Fell,1925.0,43.33333,141.86667,H4
Nyaung,17969,Valid,MIM,737.6,Fell,1939.0,21.20833,94.91667,"Iron, IIIAB"
Nyirábrany,17970,Valid,OC,1100.0,Fell,1914.0,47.55,22.025,LL5
Ochansk,17979,Valid,OC,500000.0,Fell,1887.0,57.78333,55.26667,H4
Oesede,17988,Valid,OC,1400.0,Fell,1927.0,52.28333,8.05,H5
Oesel,17989,Valid,OC,6000.0,Fell,1855.0,58.5,23.0,L6
Ofehértó,17990,Valid,OC,3750.0,Fell,1900.0,47.88333,22.03333,L6
Ogi,17994,Valid,OC,14360.0,Fell,1741.0,33.28333,130.2,H6
Ohaba,17995,Valid,OC,16250.0,Fell,1857.0,46.06667,23.58333,H5
Ohuma,17996,Valid,OC,7700.0,Fell,1963.0,6.75,8.5,L5
Ojuelos Altos,17997,Valid,OC,5850.0,Fell,1926.0,38.18333,-5.4,L6
Okabe,17998,Valid,OC,194.0,Fell,1958.0,36.18333,139.21667,H5
Okano,18000,Valid,MIM,4742.0,Fell,1904.0,35.08333,135.2,"Iron, IIAB"
Okniny,18002,Valid,OC,12000.0,Fell,1834.0,50.83333,25.5,LL6
Oldenburg (1930),18009,Valid,OC,16570.0,Fell,1930.0,52.95,8.16667,L6
Oliva-Gandia,18012,Valid,UN,,Fell,1519.0,39.0,-0.03333,Stone-uncl
Olivenza,18013,Valid,OC,150000.0,Fell,1924.0,38.71667,-7.06667,LL5
Olmedilla de Alarcón,18015,Valid,OC,40000.0,Fell,1929.0,39.56667,-2.1,H5
Omolon,18019,Valid,P,250000.0,Fell,1981.0,64.02,161.80833,"Pallasite, PMG"
Orgueil,18026,Valid,CC,14000.0,Fell,1864.0,43.88333,1.38333,CI1
Orlando,34489,Valid,AA,180.0,Fell,2004.0,28.5475,-81.36222,Eucrite
Ornans,18030,Valid,CC,6000.0,Fell,1868.0,47.11667,6.15,CO3.4
Ortenau,18033,Valid,UN,4500.0,Fell,1671.0,48.5,8.0,Stone-uncl
Orvinio,18034,Valid,OC,3400.0,Fell,1872.0,42.13333,12.93333,H6
Oterøy,18042,Valid,OC,246.0,Fell,1928.0,58.88333,9.4,L6
Otomi,18045,Valid,OC,6510.0,Fell,1867.0,38.4,140.35,H
Ottawa,18046,Valid,OC,840.0,Fell,1896.0,38.6,-95.21667,LL6
Ouadangou,56729,Valid,OC,4440.0,Fell,2003.0,12.9,0.08,L5
Oued el Hadjar,18050,Valid,OC,1215.5,Fell,1986.0,30.18,-6.57717,LL6
Oum Dreyga,31282,Valid,OC,17000.0,Fell,2003.0,24.3,-13.1,H3-5
Ourique,18052,Valid,OC,20000.0,Fell,1998.0,37.60833,-8.28,H4
Ovambo,18055,Valid,OC,121.5,Fell,1900.0,-18.0,16.0,L6
Oviedo,18058,Valid,OC,205.0,Fell,1856.0,43.4,-5.86667,H5
Owrucz,18062,Valid,OC,,Fell,1775.0,51.33333,28.83333,OC
Pacula,18068,Valid,OC,3400.0,Fell,1881.0,21.05,-99.3,L6
Padvarninkai,18069,Valid,AA,3858.0,Fell,1929.0,55.66667,25.0,Eucrite-mmict
Paitan,18072,Valid,OC,515.0,Fell,1910.0,17.74333,120.45583,H6
Palahatchie,18073,Valid,OC,,Fell,1910.0,32.31667,-89.71667,OC
Palca de Aparzo,18074,Valid,OC,1430.0,Fell,1988.0,-23.11667,-65.1,L5
Palinshih,18077,Valid,UN,18000.0,Fell,1914.0,43.48333,118.61667,Iron
Palmyra,18079,Valid,OC,135.0,Fell,1926.0,39.8,-91.5,L3
Palolo Valley,18082,Valid,OC,682.0,Fell,1949.0,21.3,-157.78333,H5
Dominion Range 03239,32591,Valid,OC,69.5,Found,2002.0,,,L6
Pampanga,18093,Valid,OC,10500.0,Fell,1859.0,15.08333,120.7,L5
Pantar,18098,Valid,OC,2130.0,Fell,1938.0,8.06667,124.28333,H5
Paragould,18101,Valid,OC,408000.0,Fell,1930.0,36.06667,-90.5,LL5
Parambu,18102,Valid,OC,2000.0,Fell,1967.0,-6.23333,-40.7,LL5
Paranaiba,18103,Valid,OC,100000.0,Fell,1956.0,-19.13333,-51.66667,L6
Park Forest,18106,Valid,OC,18000.0,Fell,2003.0,41.48472,-87.67917,L5
Parnallee,18108,Valid,OC,77600.0,Fell,1857.0,9.23333,78.35,LL3.6
Parsa,18109,Valid,EC,800.0,Fell,1942.0,26.2,85.4,EH3
Pasamonte,18110,Valid,AA,5100.0,Fell,1933.0,36.21667,-103.4,Eucrite-pmict
Patora,18112,Valid,OC,4375.0,Fell,1969.0,20.93694,82.05,H6
Patrimonio,18116,Valid,OC,2121.0,Fell,1950.0,-19.53333,-48.56667,L6
Patti,18118,Valid,UN,12.0,Fell,1922.0,38.13333,14.96667,Iron
Patwar,18171,Valid,MG,37350.0,Fell,1935.0,23.15,91.18333,Mesosiderite-A1
Pavel,18173,Valid,OC,2968.0,Fell,1966.0,43.46667,25.51667,H5
Pavlodar (stone),18175,Valid,OC,142.5,Fell,1938.0,52.3,77.03333,H5
Pavlograd,18176,Valid,OC,40000.0,Fell,1826.0,48.53333,35.98333,L6
Pavlovka,18177,Valid,AA,2000.0,Fell,1882.0,52.03333,43.0,Howardite
Pê,18179,Valid,OC,,Fell,1989.0,11.33367,-3.54217,L6
Peace River,18180,Valid,OC,45760.0,Fell,1963.0,56.13333,-117.93333,L6
Peckelsheim,18181,Valid,AA,117.8,Fell,1953.0,51.66667,9.25,Diogenite-pm
Peekskill,18782,Valid,OC,12570.0,Fell,1992.0,41.28333,-73.91667,H6
Peña Blanca Spring,18786,Valid,AA,70000.0,Fell,1946.0,30.125,-103.11667,Aubrite
Peramiho,18792,Valid,AA,165.0,Fell,1899.0,-10.66667,35.5,Eucrite-mmict
Perpeti,18793,Valid,OC,23474.0,Fell,1935.0,23.325,91.0,L6
Perth,18797,Valid,OC,2.0,Fell,1830.0,56.4,-3.43333,LL5
Pervomaisky,18798,Valid,OC,66000.0,Fell,1933.0,56.63333,39.43333,L6
Pesyanoe,18799,Valid,AA,3393.0,Fell,1933.0,55.5,66.08333,Aubrite
Pétèlkolé,18800,Valid,OC,189.0,Fell,1995.0,14.052,0.42,H5
Petersburg,18801,Valid,AA,1800.0,Fell,1855.0,35.3,-86.63333,Eucrite-pmict
Pettiswood,18804,Valid,UN,,Fell,1779.0,53.53333,-7.33333,Stone-uncl
Phillips County (stone),18808,Valid,OC,57900.0,Fell,1901.0,40.0,-99.25,L6
Phu Hong,18809,Valid,OC,500.0,Fell,1887.0,11.25,108.58333,H4
Phum Sambo,18811,Valid,OC,7800.0,Fell,1933.0,12.0,105.48333,H4
Phuoc-Binh,18812,Valid,OC,11000.0,Fell,1941.0,15.71667,108.1,L5
Piancaldoli,18813,Valid,OC,13.1,Fell,1968.0,44.24417,11.50222,LL3.4
Picote,18816,Valid,UN,,Fell,1843.0,41.36667,-6.23333,Stone-uncl
Pillistfer,18822,Valid,EC,23250.0,Fell,1863.0,58.66667,25.73333,EL6
Piplia Kalan,18831,Valid,AA,42000.0,Fell,1996.0,26.03472,73.94167,Eucrite-mmict
Piquetberg,18832,Valid,OC,37.0,Fell,1881.0,-32.86667,18.71667,H
Pirgunje,18834,Valid,OC,842.0,Fell,1882.0,25.8,88.45,L6
Pirthalla,18835,Valid,OC,1161.0,Fell,1884.0,29.58333,76.0,H6
Pitts,18837,Valid,NMIM,3760.0,Fell,1921.0,31.95,-83.51667,"Iron, IAB-ung"
Plantersville,18846,Valid,OC,2085.0,Fell,1930.0,30.7,-96.11667,H6
Pleşcoi,51706,Valid,OC,6913.0,Fell,2008.0,45.275,26.70972,L5-6
Ploschkovitz,18849,Valid,OC,39.0,Fell,1723.0,50.53333,14.11667,L5
Pnompehn,18851,Valid,OC,96.0,Fell,1868.0,11.58333,104.91667,L6
Dominion Range 03240,32592,Valid,OC,290.9,Found,2002.0,,,LL5
Pohlitz,18853,Valid,OC,3000.0,Fell,1819.0,50.93333,12.13333,L5
Pokhra,18858,Valid,OC,350.0,Fell,1866.0,26.71667,82.66667,H5
Pollen,18860,Valid,CC,253.6,Fell,1942.0,66.34833,14.015,CM2
Pontlyfni,18865,Valid,PA,157.0,Fell,1931.0,53.03639,-4.31944,Winonaite
Portales Valley,18874,Valid,OC,71400.0,Fell,1998.0,34.175,-103.295,H6
Portugal,18876,Valid,UN,4500.0,Fell,1796.0,38.5,-8.0,Stone-uncl
Po-wang Chen,18879,Valid,OC,665.0,Fell,1933.0,31.41667,118.5,LL
Prambachkirchen,18883,Valid,OC,2125.0,Fell,1932.0,48.3025,13.94083,L6
Pribram,18887,Valid,OC,5555.0,Fell,1959.0,49.66667,14.03333,H5
Pricetown,18888,Valid,OC,900.0,Fell,1893.0,39.11667,-83.85,L6
Puerto Lápice,45984,Valid,AA,500.0,Fell,2007.0,39.35,-3.51667,Eucrite-br
Pulsora,18899,Valid,OC,560.0,Fell,1863.0,23.36667,75.18333,H5
Pultusk,18901,Valid,OC,250000.0,Fell,1868.0,52.76667,21.26667,H5
Punganaru,18902,Valid,UN,100.0,Fell,1811.0,13.33333,78.95,Stone-uncl
Putinga,18905,Valid,OC,300000.0,Fell,1937.0,-29.03333,-53.05,L6
Qidong,18907,Valid,OC,1275.0,Fell,1982.0,32.08333,121.5,L/LL5
Qingzhen,18908,Valid,EC,2600.0,Fell,1976.0,26.53333,106.46667,EH3
Queen's Mercy,22357,Valid,OC,7000.0,Fell,1925.0,-30.11667,28.7,H6
Quenggouk,22358,Valid,OC,6045.0,Fell,1857.0,17.76667,95.18333,H4
Quesa,22360,Valid,NMIM,10750.0,Fell,1898.0,39.0,-0.66667,"Iron, IAB-ung"
Quija,22361,Valid,OC,17450.0,Fell,1990.0,44.61667,126.13333,H
Quincay,22363,Valid,OC,65.0,Fell,1851.0,46.6,0.25,L6
Raco,22368,Valid,OC,5000.0,Fell,1957.0,-26.66667,-65.45,H5
Raghunathpura,22371,Valid,MIM,10200.0,Fell,1986.0,27.72528,76.465,"Iron, IIAB"
Rahimyar Khan,31302,Valid,OC,67225.0,Fell,1983.0,28.225,70.2,L5
Rakovka,22376,Valid,OC,9000.0,Fell,1878.0,52.98333,37.03333,L6
Ramnagar,22384,Valid,OC,3766.0,Fell,1940.0,26.45,82.9,L6
Rampurhat,22385,Valid,OC,100.0,Fell,1916.0,24.16667,87.76667,LL
Ramsdorf,22386,Valid,OC,4682.0,Fell,1958.0,51.88333,6.93333,L6
Ranchapur,22387,Valid,OC,290.4,Fell,1917.0,23.98333,87.08333,H4
Rancho de la Presa,22390,Valid,OC,300.0,Fell,1899.0,19.86667,-100.81667,H5
Rangala,22392,Valid,OC,3224.5,Fell,1937.0,25.38333,72.01667,L6
Raoyang,22394,Valid,OC,4910.0,Fell,1919.0,38.2,115.7,L6
Ras Tanura,22395,Valid,OC,6.1,Fell,1961.0,26.66667,50.15,H6
Rasgrad,22396,Valid,UN,24700.0,Fell,1740.0,43.5,26.53333,Stone-uncl
Ratyn,22398,Valid,UN,910.0,Fell,1880.0,52.2,17.98333,Stone-uncl
Red Canyon Lake,53502,Valid,OC,18.41,Fell,2007.0,38.13742,-119.75812,H5
Reliegos,22584,Valid,OC,17300.0,Fell,1947.0,42.475,-5.33333,L5
Rembang,22585,Valid,MIM,10000.0,Fell,1919.0,-6.73333,111.36667,"Iron, IVA"
Renazzo,22586,Valid,CC,1000.0,Fell,1824.0,44.76667,11.28333,CR2
Renca,22587,Valid,OC,300.0,Fell,1925.0,-32.75,-65.28333,L5
Renqiu,22589,Valid,OC,355.0,Fell,1916.0,38.66667,116.13333,L6
Repeev Khutor,22590,Valid,MIM,7000.0,Fell,1933.0,48.6,45.66667,"Iron, IIF"
Revelstoke,22592,Valid,CC,1.0,Fell,1965.0,51.33333,-118.95,CI1
Rewari,22593,Valid,OC,3332.0,Fell,1929.0,28.2,76.66667,L6
Rich Mountain,22597,Valid,OC,668.0,Fell,1903.0,35.03333,-83.03333,L6
Uzcudun,24140,Valid,OC,20000.0,Fell,1948.0,-44.11667,-66.15,L
Richardton,22599,Valid,OC,90000.0,Fell,1918.0,46.88333,-102.31667,H5
Richland Springs,22602,Valid,OC,1900.0,Fell,1980.0,31.25,-99.03333,OC
Richmond,22603,Valid,OC,1800.0,Fell,1828.0,37.46667,-77.5,LL5
Rio Negro,22611,Valid,OC,1310.0,Fell,1934.0,-26.1,-49.8,L4
Rivolta de Bassi,22614,Valid,UN,103.3,Fell,1490.0,45.48333,9.51667,Stone-uncl
Rochester,22637,Valid,OC,340.0,Fell,1876.0,41.08333,-86.28333,H6
Rockhampton,22640,Valid,UN,1641.0,Fell,1895.0,-23.38333,150.51667,Stone-uncl
Roda,22641,Valid,AA,400.0,Fell,1871.0,42.3,0.55,Diogenite
Rodach,22642,Valid,UN,2900.0,Fell,1775.0,50.35,10.8,Stone-uncl
Rose City,22766,Valid,OC,10600.0,Fell,1921.0,44.51667,-83.95,H5
Rowton,22773,Valid,MIM,3500.0,Fell,1876.0,52.76667,-2.51667,"Iron, IIIAB"
Ruhobobo,22780,Valid,OC,465.5,Fell,1976.0,-1.45,29.83333,L6
Rumuruti,22782,Valid,AOC,67.0,Fell,1934.0,0.26667,36.53333,R3.8-6
Rupota,22783,Valid,OC,6000.0,Fell,1949.0,-10.26667,38.76667,L4-6
Ryechki,22791,Valid,OC,13000.0,Fell,1914.0,51.13333,34.5,L5
Sabetmahet,22792,Valid,OC,1250.0,Fell,1855.0,27.43333,82.08333,H5
Sabrum,22793,Valid,OC,478.0,Fell,1999.0,23.08333,91.66667,LL6
Sagan,22796,Valid,UN,,Fell,1636.0,51.53333,14.88333,Stone-uncl
Saint-Sauveur,23101,Valid,EC,14000.0,Fell,1914.0,43.73333,1.38333,EH5
Saint-Séverin,23102,Valid,OC,271000.0,Fell,1966.0,45.3,0.23333,LL6
Sakauchi,23103,Valid,UN,4180.0,Fell,1913.0,35.66667,136.3,Iron
Salem,23107,Valid,OC,61.4,Fell,1981.0,44.97917,-122.96944,L6
Salles,23111,Valid,OC,9000.0,Fell,1798.0,46.05,4.63333,L5
Salzwedel,23114,Valid,OC,43.0,Fell,1985.0,52.75,11.05,LL5
Samelia,23115,Valid,MIM,2462.0,Fell,1921.0,25.66667,74.86667,"Iron, IIIAB"
San Juan Capistrano,23128,Valid,OC,56.0,Fell,1973.0,33.48472,-117.6625,H6
San Michele,31315,Valid,OC,237.0,Fell,2002.0,43.66667,13.0,L6
San Pedro de Quiles,23130,Valid,OC,282.0,Fell,1956.0,-31.01667,-71.4,L6
San Pedro Jacuaro,34063,Valid,OC,460.0,Fell,1968.0,19.76667,-100.65,LL6
Santa Barbara,23161,Valid,OC,400.0,Fell,1873.0,-29.2,-51.86667,L4
Santa Cruz,23164,Valid,CC,60.0,Fell,1939.0,24.16667,-99.33333,CM2
Santa Isabel,23165,Valid,OC,5500.0,Fell,1924.0,-33.9,-61.7,L6
Santa Lucia (2008),50909,Valid,OC,4000.0,Fell,2008.0,-31.535556,-68.489444,L6
São Jose do Rio Preto,23171,Valid,OC,927.0,Fell,1962.0,-20.81,-49.38056,H4
Saratov,23176,Valid,OC,200000.0,Fell,1918.0,52.55,46.55,L4
Sasagase,23187,Valid,OC,695.0,Fell,1688.0,34.71667,137.78333,H
Sauguis,23188,Valid,OC,4000.0,Fell,1868.0,43.15,-0.85,L6
Savtschenskoje,23190,Valid,OC,2500.0,Fell,1894.0,47.21667,29.86667,LL4
Sayama,23192,Valid,CC,430.0,Fell,1986.0,35.86667,139.4,CM2
Sazovice,23455,Valid,OC,412.0,Fell,1934.0,49.23333,17.56667,L5
Schellin,23457,Valid,OC,7000.0,Fell,1715.0,53.35,15.05,L
Schenectady,23458,Valid,OC,283.3,Fell,1968.0,42.86083,-73.95028,H5
Schönenberg,23460,Valid,OC,8000.0,Fell,1846.0,48.11667,10.46667,L6
Searsmont,23472,Valid,OC,5400.0,Fell,1871.0,44.36667,-69.2,H5
Sediköy,23473,Valid,OC,240.0,Fell,1917.0,38.3,27.13333,L6
Segowlie,23476,Valid,OC,6930.0,Fell,1853.0,26.75,84.78333,LL6
Selakopi,23481,Valid,OC,1590.0,Fell,1939.0,-7.23333,107.33333,H5
Seldebourak,23483,Valid,OC,150.0,Fell,1947.0,22.83333,4.98333,H5
Semarkona,23487,Valid,OC,691.0,Fell,1940.0,22.25,79.0,LL3.00
Sena,23495,Valid,OC,4000.0,Fell,1773.0,41.71667,-0.05,H4
Senboku,23496,Valid,OC,866.0,Fell,1993.0,39.43833,140.51167,H6
Seoni,23500,Valid,OC,20000.0,Fell,1966.0,21.68389,79.50083,H6
Seres,23501,Valid,OC,8500.0,Fell,1818.0,41.05,23.56667,H4
Serra de Magé,23502,Valid,AA,1800.0,Fell,1923.0,-8.38333,-36.76667,Eucrite-cm
Sete Lagoas,23504,Valid,OC,350.0,Fell,1908.0,-19.46667,-44.21667,H4
Sevilla,23508,Valid,OC,180.0,Fell,1862.0,37.41667,-6.0,LL4
Sevrukovo,23509,Valid,OC,101000.0,Fell,1874.0,50.61667,36.6,L5
Sfax,23512,Valid,OC,7000.0,Fell,1989.0,34.75,10.71667,L6
Shalka,23521,Valid,AA,4000.0,Fell,1850.0,23.1,87.3,Diogenite
Sharps,23525,Valid,OC,1265.0,Fell,1921.0,37.83333,-76.7,H3.4
Shelburne,23529,Valid,OC,18600.0,Fell,1904.0,44.05,-80.16667,L5
Shergotty,23530,Valid,M,5000.0,Fell,1865.0,24.55,84.83333,Martian (shergottite)
Sheyang,23531,Valid,OC,605.0,Fell,1976.0,33.65,120.06667,L6
Shikarpur,23534,Valid,OC,3679.7,Fell,1921.0,25.85,87.5775,L6
Shuangyang,23582,Valid,OC,3900.0,Fell,1971.0,43.5,125.66667,H5
Shupiyan,23583,Valid,OC,5000.0,Fell,1912.0,33.71667,74.83333,H6
Shytal,23584,Valid,OC,3200.0,Fell,1863.0,24.33333,90.16667,L6
Siena,23586,Valid,OC,3700.0,Fell,1794.0,43.11667,11.6,LL5
Sikhote-Alin,23593,Valid,MIM,23000000.0,Fell,1947.0,46.16,134.65333,"Iron, IIAB"
Silao,23594,Valid,OC,1710.0,Fell,1995.0,20.93333,-101.38333,H5
Silistra,55584,Valid,UN,0.15,Fell,1917.0,44.11667,27.26667,Achondrite-ung
Simmern,23603,Valid,OC,1222.0,Fell,1920.0,49.98333,7.53333,H5
Sinai,23606,Valid,OC,1455.0,Fell,1916.0,30.9,32.48333,L6
Sindhri,23611,Valid,OC,8400.0,Fell,1901.0,26.21667,69.55,H5
Sinnai,23613,Valid,OC,2000.0,Fell,1956.0,39.3,9.2,H6
Sioux County,23614,Valid,AA,4100.0,Fell,1933.0,42.58333,-103.66667,Eucrite-mmict
Sitathali,23616,Valid,OC,1600.0,Fell,1875.0,20.91667,82.58333,H5
Sivas,23617,Valid,OC,40000.0,Fell,1989.0,39.82467,36.13583,H6
Sixiangkou,23619,Valid,OC,630.0,Fell,1989.0,32.43333,119.86667,L5
Ski,23621,Valid,OC,850.0,Fell,1848.0,59.73333,10.86667,L6
Slavetic,23626,Valid,OC,1708.0,Fell,1868.0,45.68333,15.6,H5
Slobodka,23645,Valid,OC,2750.0,Fell,1818.0,55.0,35.0,L4
Soheria,23660,Valid,OC,72.9,Fell,1960.0,27.13333,84.06667,OC
Soko-Banja,23661,Valid,OC,80000.0,Fell,1877.0,43.66667,21.86667,LL4
Sologne,23663,Valid,OC,54.0,Fell,1860.0,47.36667,1.73333,H5
Sołtmany,53829,Valid,OC,1066.0,Fell,2011.0,54.00883,22.005,L6
Sone,23667,Valid,OC,17100.0,Fell,1866.0,35.16667,135.33333,H5
Songyuan,23668,Valid,OC,36900.0,Fell,1993.0,45.25,125.0,L6
Sopot,23670,Valid,OC,958.0,Fell,1927.0,44.41667,23.5,OC
Soroti,23671,Valid,UN,2050.0,Fell,1945.0,1.7,33.63333,"Iron, ungrouped"
St. Caprais-de-Quinsac,23081,Valid,OC,360.0,Fell,1883.0,44.75,0.05,L6
St. Christophe-la-Chartreuse,23082,Valid,OC,5500.0,Fell,1841.0,46.95,-1.5,L6
St. Denis Westrem,23083,Valid,OC,700.0,Fell,1855.0,51.05,3.75,L6
St. Germain-du-Pinel,23087,Valid,OC,4000.0,Fell,1890.0,48.01667,-1.15,H6
St. Louis,23089,Valid,OC,1000.0,Fell,1950.0,38.7,-90.23333,H4
St. Mark's,23090,Valid,EC,13780.0,Fell,1903.0,-32.01667,27.41667,EH5
St. Mary's County,23091,Valid,OC,24.3,Fell,1919.0,38.16667,-76.38333,LL3.3
St. Mesmin,23092,Valid,OC,8300.0,Fell,1866.0,48.45,3.93333,LL6
St. Michel,23093,Valid,OC,17000.0,Fell,1910.0,61.65,27.2,L6
St.-Chinian,23097,Valid,OC,134.3,Fell,1959.0,43.43333,2.95,L6
Ställdalen,23712,Valid,OC,34000.0,Fell,1876.0,59.93333,14.95,H5
Stannern,23713,Valid,AA,52000.0,Fell,1808.0,49.28333,15.56667,Eucrite-mmict
Stavropol,23717,Valid,OC,1500.0,Fell,1857.0,45.05,41.98333,L6
Ste. Marguerite,23099,Valid,OC,4960.0,Fell,1962.0,50.76667,3.0,H4
Sterlitamak,23724,Valid,MIM,325000.0,Fell,1990.0,53.66667,55.98333,"Iron, IIIAB"
Stolzenau,23726,Valid,UN,,Fell,1647.0,52.53333,9.05,Stone-uncl
Stratford,23728,Valid,OC,50.0,Fell,1974.0,41.2,-73.13333,L6
Strathmore,23729,Valid,OC,13400.0,Fell,1917.0,56.58333,-3.25,L6
Stretchleigh,23732,Valid,UN,10400.0,Fell,1623.0,50.38333,-3.95,Stone-uncl
St-Robert,23733,Valid,OC,25400.0,Fell,1994.0,45.96861,-72.97806,H5
Success,23736,Valid,OC,3500.0,Fell,1924.0,36.48333,-90.66667,L6
Suchy Dul,23737,Valid,OC,815.3,Fell,1969.0,50.53806,16.26333,L6
Suizhou,23738,Valid,OC,260000.0,Fell,1986.0,31.61667,113.46667,L6
Sulagiri,48951,Valid,OC,110000.0,Fell,2008.0,12.66667,78.03333,LL6
Sultanpur,23741,Valid,OC,1710.5,Fell,1916.0,25.93333,84.28333,L/LL6
Sungach,23745,Valid,OC,637.0,Fell,1935.0,44.86667,133.16667,H5
Supuhee,23760,Valid,OC,7235.0,Fell,1865.0,26.71667,84.21667,H6
Sutter's Mill,55529,Valid,CC,992.5,Fell,2012.0,38.80389,-120.90806,C
Sylacauga,23773,Valid,OC,5560.0,Fell,1954.0,33.18836,-86.2945,H4
Tabor,23776,Valid,OC,7540.0,Fell,1753.0,49.4,14.65,H5
Tadjera,23778,Valid,OC,9000.0,Fell,1867.0,36.18333,5.41667,L5
Tagish Lake,23782,Valid,CC,10000.0,Fell,2000.0,59.70444,-134.20139,C2-ung
Tahara,23784,Valid,OC,1000.0,Fell,1991.0,34.72,137.305,H4/5
Takenouchi,23789,Valid,OC,720.0,Fell,1880.0,35.38333,134.9,H5
Talampaya,23791,Valid,AA,1421.0,Fell,1995.0,,,Eucrite-cm
Tambakwatu,23795,Valid,OC,10500.0,Fell,1975.0,-7.75,112.76667,L6
Tamdakht,48691,Valid,OC,100000.0,Fell,2008.0,31.16333,-7.015,H5
Tané,23801,Valid,OC,905.0,Fell,1918.0,35.43333,136.23333,L5
Taonan,23873,Valid,OC,3850.0,Fell,1965.0,45.4,122.9,L5
Tatahouine,23884,Valid,AA,12000.0,Fell,1931.0,32.95,10.41667,Diogenite
Tathlith,23885,Valid,OC,2500.0,Fell,1967.0,19.38333,43.73333,L6
Tauk,23887,Valid,OC,6000.0,Fell,1929.0,35.13333,44.45,L6
Tauti,23888,Valid,OC,21000.0,Fell,1937.0,46.71667,23.5,L6
Tenham,23897,Valid,OC,160000.0,Fell,1879.0,-25.73333,142.95,L6
Tennasilm,23898,Valid,OC,28500.0,Fell,1872.0,58.03333,26.95,L4
Thal,23908,Valid,OC,342.0,Fell,1950.0,33.4,70.6,H6
Thika,54493,Valid,OC,14200.0,Fell,2011.0,-1.00278,37.15028,L6
Thuathe,23976,Valid,OC,45300.0,Fell,2002.0,-29.33333,27.58333,H4/5
Tianzhang,23984,Valid,OC,2232.0,Fell,1986.0,32.94667,118.99,H5
Tieschitz,23989,Valid,OC,28000.0,Fell,1878.0,49.6,17.11667,H/L3.6
Tilden,23998,Valid,OC,74800.0,Fell,1927.0,38.2,-89.68333,L6
Tillaberi,23999,Valid,OC,3000.0,Fell,1970.0,14.25,1.53333,L6
Timochin,24004,Valid,OC,65500.0,Fell,1807.0,54.5,35.2,H5
Tirupati,24009,Valid,OC,230.0,Fell,1934.0,13.63333,79.41667,H6
Tissint,54823,Valid,M,7000.0,Fell,2011.0,29.48195,-7.61123,Martian (shergottite)
Tjabe,24011,Valid,OC,20000.0,Fell,1869.0,-7.08333,111.53333,H6
Tjerebon,24012,Valid,OC,16500.0,Fell,1922.0,-6.66667,106.58333,L5
Tomakovka,24019,Valid,OC,600.0,Fell,1905.0,47.85,34.76667,LL6
Tomatlan,24020,Valid,OC,900.0,Fell,1879.0,20.16667,-105.21667,H6
Tomita,24023,Valid,OC,600.0,Fell,1916.0,34.5,133.75,L
Tomiya,24024,Valid,OC,27.5,Fell,1984.0,38.36667,140.86556,H4/5
Tonk,24026,Valid,CC,7.7,Fell,1911.0,24.65,76.86667,CI1
Torino,24029,Valid,OC,977.0,Fell,1988.0,45.06667,7.66667,H6
Torrington,24032,Valid,OC,259.1,Fell,1944.0,42.06667,-104.16667,H6
Toulouse,24036,Valid,OC,1030.0,Fell,1812.0,43.6,1.4,H6
Tounkin,24037,Valid,OC,2000.0,Fell,1824.0,51.73333,102.53333,OC
Tourinnes-la-Grosse,24038,Valid,OC,14500.0,Fell,1863.0,50.78333,4.76667,L6
Trebbin,24042,Valid,OC,1250.0,Fell,1988.0,52.21667,13.16667,LL6
Trenzano,24046,Valid,OC,11800.0,Fell,1856.0,45.46667,10.0,H3/4
Treysa,24050,Valid,MIM,63000.0,Fell,1916.0,50.91667,9.18333,"Iron, IIIAB-an"
Tromøy,24053,Valid,OC,357.4,Fell,1950.0,58.47333,8.86667,H
Troup,24054,Valid,OC,1020.0,Fell,1917.0,32.16667,-95.1,L6
Trysil,24057,Valid,OC,640.0,Fell,1927.0,61.3,12.3,L/LL6
Tsukuba,24059,Valid,OC,800.0,Fell,1996.0,36.06333,140.145,H5-6
Tuan Tuc,24060,Valid,OC,13100.0,Fell,1921.0,9.66667,105.66667,L6
Tugalin-Bulen,24062,Valid,OC,10000.0,Fell,1967.0,45.46667,105.38333,H6
Tulung Dzong,24071,Valid,UN,,Fell,1944.0,30.0,90.75,Stone-uncl
Turtle Lake,47343,Valid,OC,89.3,Fell,1996.0,45.34583,-92.05167,L5
Tuxtuac,24086,Valid,OC,30000.0,Fell,1975.0,21.66667,-103.36667,LL5
Tysnes Island,24094,Valid,OC,19860.0,Fell,1884.0,60.0,5.61667,H4
Tyumen,24095,Valid,UN,750.0,Fell,1903.0,57.16667,65.53333,Iron
Uberaba,24096,Valid,OC,40000.0,Fell,1903.0,-19.81667,-48.78333,H5
Ucera,24097,Valid,OC,4590.0,Fell,1970.0,11.05,-69.85,H5
Uchkuduk,24098,Valid,OC,1000.0,Fell,1989.0,41.76667,62.51667,L6
Udaipur,24099,Valid,OC,2000.0,Fell,1976.0,,,H3
Udei Station,24101,Valid,NMIM,103000.0,Fell,1927.0,7.95,8.08333,"Iron, IAB-ung"
Uden,24103,Valid,OC,710.0,Fell,1840.0,51.65,5.61667,LL7
Udipi,24104,Valid,OC,3600.0,Fell,1866.0,13.48333,74.78333,H5
Ufana,24106,Valid,EC,189.2,Fell,1957.0,-4.26667,35.35,EL6
Ulmiz,24108,Valid,OC,76.5,Fell,1926.0,46.93333,7.21667,L
Umbala,24112,Valid,OC,100.0,Fell,1822.0,30.33333,76.33333,LL5
Umm Ruaba,24118,Valid,OC,1700.0,Fell,1966.0,13.46667,31.21667,L5
Undulung,24121,Valid,OC,113.4,Fell,1986.0,66.13889,124.76667,L4
Unkoku,24123,Valid,OC,1000.0,Fell,1924.0,34.8,127.0,OC
Urasaki,24129,Valid,UN,1500.0,Fell,1926.0,34.48333,133.28333,Stone-uncl
Usti Nad Orlici,24132,Valid,OC,1269.0,Fell,1963.0,49.975,16.375,L6
Utrecht,24135,Valid,OC,9700.0,Fell,1843.0,52.11667,5.18333,L6
Utzenstorf,24136,Valid,OC,3422.0,Fell,1928.0,47.11667,7.55,H5
Vago,24143,Valid,OC,40.0,Fell,1668.0,45.41667,11.13333,H6
Valdavur,24144,Valid,OC,2799.0,Fell,1944.0,11.98333,79.75,H6
Valdinizza,24145,Valid,OC,1004.0,Fell,1903.0,44.86667,9.15,L6
Valdinoce,24146,Valid,UN,,Fell,1495.0,44.06667,12.1,Stone-uncl
Valera,24149,Valid,OC,50000.0,Fell,1972.0,9.31667,-70.62833,L5
Varre-Sai,53633,Valid,OC,2500.0,Fell,2010.0,-20.85001,-41.73356,L5
Vavilovka,24154,Valid,OC,1932.0,Fell,1876.0,46.15,32.83333,LL6
Vengerovo,24158,Valid,OC,10800.0,Fell,1950.0,56.13333,77.26667,H5
Veramin,24162,Valid,MG,54000.0,Fell,1880.0,35.33333,51.63333,Mesosiderite-B2
Verkhne Tschirskaia,24165,Valid,OC,8000.0,Fell,1843.0,48.41667,43.2,H5
Vernon County,24168,Valid,OC,1500.0,Fell,1865.0,43.5,-91.16667,H6
Vetluga,24169,Valid,AA,750.0,Fell,1949.0,57.8,45.8,Eucrite-mmict
Vigarano,24174,Valid,CC,15000.0,Fell,1910.0,44.85,11.4,CV3
Villalbeto de la Peña,24179,Valid,OC,3500.0,Fell,2004.0,42.8,-4.66667,L6
Villarrica,24181,Valid,UN,,Fell,1925.0,-25.83333,-56.5,Stone-uncl
Vilna,24183,Valid,OC,0.1,Fell,1967.0,54.225,-111.69167,L5
Virba,24185,Valid,OC,3600.0,Fell,1873.0,43.53333,22.63333,L6
Vishnupur,24187,Valid,OC,2437.0,Fell,1906.0,23.1,87.43333,LL4-6
Vissannapeta,24188,Valid,AA,1303.8,Fell,1997.0,16.83333,80.75,Eucrite-cm
Visuni,24189,Valid,OC,594.0,Fell,1915.0,25.45,70.0,H6
Vouillé,24191,Valid,OC,20000.0,Fell,1831.0,46.63333,0.16667,L6
Walters,24210,Valid,OC,28100.0,Fell,1946.0,34.33333,-98.3,L6
Warrenton,24215,Valid,CC,1600.0,Fell,1877.0,38.68333,-91.15,CO3.7
Washougal,24218,Valid,AA,225.0,Fell,1939.0,45.58333,-122.35,Howardite
Werdama,47344,Valid,OC,4000.0,Fell,2006.0,32.79732,21.78713,H5
Wessely,24244,Valid,OC,3750.0,Fell,1831.0,48.95,17.38333,H5
Weston,24249,Valid,OC,150000.0,Fell,1807.0,41.266667,-73.266667,H4
Wethersfield (1971),24250,Valid,OC,350.0,Fell,1971.0,41.7,-72.65,L6
Wethersfield (1982),24251,Valid,OC,2756.0,Fell,1982.0,41.71056,-72.67361,L6
Whetstone Mountains,49514,Valid,OC,2138.74,Fell,2009.0,31.96185,-110.434183,H5
Wiluna,24281,Valid,OC,150000.0,Fell,1967.0,-26.59278,120.32833,H5
Witklip Farm,24321,Valid,OC,22.0,Fell,1918.0,-26.0,30.0,H5
Witsand Farm,24322,Valid,OC,66.0,Fell,1932.0,-28.66667,18.91667,LL4
Wittekrantz,24323,Valid,OC,2200.0,Fell,1880.0,-32.5,23.0,L5
Wolamo,24324,Valid,OC,166.4,Fell,1964.0,9.0,39.0,OC
Wold Cottage,24325,Valid,OC,25000.0,Fell,1795.0,54.13667,-0.41333,L6
Woolgorong,24334,Valid,OC,36000.0,Fell,1960.0,-27.75,115.83333,L6
Worden,24337,Valid,OC,1551.0,Fell,1997.0,42.38467,-83.6115,L5
Wuan,24340,Valid,OC,50000.0,Fell,1986.0,36.75,114.25,H6
Wuzhi,24342,Valid,UN,,Fell,1931.0,35.13333,113.33333,Stone-uncl
Xi Ujimgin,24345,Valid,OC,5900.0,Fell,1980.0,44.66667,117.5,L/LL6-an
Xingyang,24346,Valid,OC,75500.0,Fell,1977.0,32.33333,114.31667,H6
Yafa,24351,Valid,OC,5700.0,Fell,2000.0,13.71111,45.17,H5
Yambo,30345,Valid,OC,4.0,Fell,1951.0,1.0,22.5,H5
Yangchiang,30348,Valid,OC,20000.0,Fell,1954.0,21.83333,111.83333,H5
Yanzhuang,30350,Valid,OC,3500.0,Fell,1990.0,24.56667,114.16667,H6
Yardymly,30352,Valid,NMIM,150200.0,Fell,1959.0,38.93333,48.25,"Iron, IAB complex"
Yatoor,30358,Valid,OC,13600.0,Fell,1852.0,14.3,79.76667,H5
Yonozu,30366,Valid,OC,31650.0,Fell,1837.0,37.75,139.0,H4/5
Yorktown (New York),30370,Valid,OC,250.0,Fell,1869.0,41.28333,-73.81667,L5
Yoshiki,30372,Valid,UN,0.1,Fell,1928.0,34.16667,131.45,Stone-uncl
Yukan,30377,Valid,OC,4800.0,Fell,1931.0,28.71667,116.61667,LL6
Yurtuk,30378,Valid,AA,1472.0,Fell,1936.0,47.31667,35.36667,Howardite
Zaborzika,30379,Valid,OC,3867.0,Fell,1818.0,50.28333,27.68333,L6
Zabrodje,30380,Valid,OC,3000.0,Fell,1893.0,55.18333,27.91667,L6
Zag,30384,Valid,OC,175000.0,Fell,1998.0,27.33333,-9.33333,H3-6
Zagami,30386,Valid,M,18000.0,Fell,1962.0,11.73333,7.08333,Martian (shergottite)
Zaisan,30388,Valid,OC,463.0,Fell,1963.0,47.5,83.0,H5
Zaisho,30389,Valid,P,330.0,Fell,1898.0,33.7,133.8,"Pallasite, PMG-an"
Zaoyang,30391,Valid,OC,14250.0,Fell,1984.0,32.3,112.75,H5
Zavetnoe,30395,Valid,OC,800.0,Fell,1952.0,47.13333,43.9,L6
Zavid,30396,Valid,OC,95000.0,Fell,1897.0,44.4,19.11667,L6
Zebrak,30397,Valid,OC,2000.0,Fell,1824.0,49.88333,13.91667,H5
Zemaitkiemis,30399,Valid,OC,44100.0,Fell,1933.0,55.3,25.0,L6
Zhaodong,30404,Valid,OC,42000.0,Fell,1984.0,45.81667,125.91667,L4
Zhovtnevyi,30407,Valid,OC,107000.0,Fell,1938.0,47.58333,37.25,H6
Zhuanghe,30408,Valid,OC,2900.0,Fell,1976.0,39.66667,122.98333,H5
Zmenj,30411,Valid,AA,246.0,Fell,1858.0,51.83333,26.83333,Howardite
Zomba,30412,Valid,OC,7500.0,Fell,1899.0,-15.18333,35.28333,L6
Zsadany,30413,Valid,OC,552.0,Fell,1875.0,46.93333,21.5,H5
Zvonkov,30415,Valid,OC,2568.0,Fell,1955.0,50.2,30.25,H6
Abajo,4,Valid,OC,331.0,Found,1982.0,26.8,-105.41667,H5
Abar al' Uj 001,51399,Valid,OC,194.34,Found,2008.0,22.72192,48.95937,H3.8
Abbott,5,Valid,OC,21100.0,Found,1951.0,36.3,-104.28333,H3-6
Abernathy,7,Valid,OC,2914.0,Found,1941.0,33.85,-101.8,L6
Abo,8,Valid,OC,1.2,Found,1840.0,60.43333,22.3,H
Abu Moharek,9,Valid,OC,4500.0,Found,1997.0,27.23944,29.83583,H4
Acfer 001,11,Valid,OC,6700.0,Found,1989.0,27.5,3.61667,L6
Acfer 002,12,Valid,OC,228.0,Found,1989.0,27.61667,3.85,H5
Acfer 003,13,Valid,OC,145.0,Found,1989.0,27.81667,4.03333,H5
Acfer 004,14,Valid,OC,1020.0,Found,1989.0,27.58333,3.81667,L6
Acfer 005,15,Valid,OC,115.0,Found,1989.0,27.6,3.83333,H3.9/4
Acfer 006,16,Valid,OC,561.0,Found,1989.0,27.63333,3.96667,H3.9/4
Acfer 007,17,Valid,OC,542.0,Found,1989.0,27.51667,3.65,L5
Acfer 008,18,Valid,OC,205.0,Found,1989.0,27.53333,3.7,H5
Acfer 009,19,Valid,OC,127.0,Found,1989.0,27.73333,4.08333,L6
Acfer 010,20,Valid,OC,276.0,Found,1989.0,27.75,4.1,L6
Acfer 011,21,Valid,OC,3800.0,Found,1989.0,27.75,4.16667,H5
Acfer 012,22,Valid,OC,98.0,Found,1989.0,27.8,4.16667,H6
Acfer 013,23,Valid,OC,490.0,Found,1989.0,27.83333,4.28333,H5
Acfer 014,24,Valid,OC,307.0,Found,1989.0,27.8,4.46667,H5
Acfer 015,25,Valid,OC,98.0,Found,1989.0,27.78333,4.28333,L6
Acfer 016,26,Valid,OC,111.0,Found,1989.0,27.71667,4.48333,H4-5
Acfer 017,27,Valid,OC,446.0,Found,1989.0,27.73333,4.4,L5
Acfer 018,28,Valid,OC,207.0,Found,1989.0,27.7,4.08333,H5
Acfer 019,29,Valid,OC,581.0,Found,1989.0,27.7,4.06667,L6
Acfer 020,30,Valid,OC,708.0,Found,1989.0,27.7,4.06667,H5
Acfer 021,31,Valid,OC,2140.0,Found,1989.0,27.55,3.61667,H6
Acfer 022,32,Valid,OC,192.0,Found,1989.0,27.51667,3.83333,H3.7
Acfer 023,33,Valid,OC,118.0,Found,1989.0,27.51667,3.91667,H3.8
Acfer 024,34,Valid,OC,1464.0,Found,1989.0,27.55,3.93333,H5
Acfer 025,35,Valid,OC,920.0,Found,1989.0,27.58333,3.96667,H5
Acfer 026,36,Valid,OC,88.0,Found,1989.0,27.61667,4.05,H5/6
Acfer 027,37,Valid,OC,206.0,Found,1989.0,27.66667,4.2,H5
Acfer 028,38,Valid,OC,3130.0,Found,1989.0,27.66667,4.25,H3.8
Acfer 029,39,Valid,OC,98.0,Found,1989.0,27.68333,4.33333,H4
Acfer 030,40,Valid,OC,123.0,Found,1989.0,27.68333,4.41667,LL6
Acfer 031,41,Valid,OC,2016.0,Found,1989.0,27.66667,4.35,H5
Acfer 032,42,Valid,OC,495.0,Found,1989.0,27.65,4.46667,L6
Acfer 033,43,Valid,OC,93.0,Found,1989.0,27.65,4.43333,L6
Acfer 034,44,Valid,OC,184.0,Found,1989.0,27.63333,4.35,L6
Acfer 035,45,Valid,OC,36.0,Found,1989.0,27.6,4.3,H6
Acfer 036,46,Valid,OC,112.0,Found,1989.0,27.58333,4.25,L5/6
Acfer 037,47,Valid,OC,385.0,Found,1989.0,27.55,4.13333,LL4-6
Acfer 038,48,Valid,OC,962.0,Found,1989.0,27.53333,4.0,H5
Acfer 039,49,Valid,OC,225.0,Found,1989.0,27.53333,3.91667,L3.8
Acfer 040,50,Valid,OC,146.0,Found,1989.0,27.46667,3.78333,L5-6
Acfer 041,51,Valid,OC,134.0,Found,1989.0,27.43333,3.71667,L/LL6
Acfer 042,52,Valid,OC,246.0,Found,1989.0,27.46667,3.83333,H5
Acfer 043,53,Valid,OC,120.0,Found,1989.0,27.51667,3.91667,H4
Acfer 044,54,Valid,OC,195.0,Found,1989.0,27.55,4.0,L6
Acfer 046,56,Valid,OC,1066.0,Found,1989.0,27.78333,4.7,H5
Acfer 047,57,Valid,OC,1440.0,Found,1989.0,27.83333,4.7,L4
Acfer 048,58,Valid,OC,115.0,Found,1989.0,27.55,4.08333,H4-5
Acfer 049,59,Valid,OC,82.9,Found,1989.0,27.41667,3.71667,H5
Acfer 050,60,Valid,OC,1394.0,Found,1989.0,27.65,4.5,H6
Acfer 051,61,Valid,OC,905.0,Found,1989.0,27.61667,4.41667,L5
Acfer 052,62,Valid,OC,58.0,Found,1989.0,27.75,4.15,L5
Acfer 053,63,Valid,OC,1937.0,Found,1989.0,27.73333,4.05,H6
Acfer 054,64,Valid,OC,2051.0,Found,1989.0,27.7,3.93333,H5
Acfer 055,65,Valid,OC,1338.0,Found,1989.0,27.5,3.98333,H5
Acfer 056,66,Valid,OC,129.0,Found,1989.0,27.46667,3.88333,L4
Acfer 058,67,Valid,OC,277.0,Found,1989.0,27.38333,3.71667,LL5-6
Acfer 059,68,Valid,CC,281.0,Found,1989.0,27.51667,4.06667,CR2
Acfer 060,69,Valid,OC,226.0,Found,1989.0,27.56667,4.16667,H4
Acfer 061,70,Valid,OC,105.0,Found,1989.0,27.6,4.25,H4-5
Acfer 062,71,Valid,OC,283.0,Found,1989.0,27.6,4.41667,H5
Acfer 063,72,Valid,MG,716.0,Found,1989.0,27.61667,4.56667,Mesosiderite
Acfer 064,73,Valid,OC,854.0,Found,1989.0,27.61667,4.56667,L5
Acfer 065,74,Valid,OC,1539.0,Found,1989.0,27.5,4.28333,H4-5
Acfer 066,75,Valid,OC,517.0,Found,1990.0,27.63333,4.06667,LL3.8-6
Acfer 067,76,Valid,OC,383.0,Found,1990.0,27.71667,4.78333,H5
Acfer 068,77,Valid,OC,1805.0,Found,1990.0,27.55,3.7,L6
Acfer 069,78,Valid,OC,941.0,Found,1990.0,27.53333,3.83333,L6
Acfer 070,79,Valid,OC,138.0,Found,1990.0,27.68333,4.48333,H4/5
Acfer 071,80,Valid,OC,1379.0,Found,1990.0,27.63333,4.28333,L6
Acfer 072,81,Valid,OC,162.0,Found,1990.0,27.63333,4.25,L5/6
Acfer 073,82,Valid,OC,2010.0,Found,1990.0,27.53333,3.85,H5
Acfer 074,83,Valid,OC,384.0,Found,1990.0,27.48333,3.83333,L6
Acfer 075,84,Valid,OC,1453.0,Found,1990.0,27.51667,3.73333,H5
Acfer 076,85,Valid,OC,183.0,Found,1990.0,27.7,4.35,H5
Acfer 077,86,Valid,OC,2538.0,Found,1990.0,27.63333,4.51667,L6
Acfer 078,87,Valid,OC,105.0,Found,1990.0,27.56667,4.15,H5
Acfer 079,88,Valid,OC,387.0,Found,1990.0,27.5,3.68333,L6
Acfer 080,89,Valid,OC,574.0,Found,1990.0,27.63333,4.51667,L3.9
Acfer 081,90,Valid,OC,110.0,Found,1990.0,27.53333,3.86667,LL5-6
Acfer 082,91,Valid,CC,208.0,Found,1990.0,27.5,3.48333,CV3
Acfer 083,92,Valid,OC,690.0,Found,1990.0,27.48333,3.63333,L6
Acfer 084,93,Valid,OC,6300.0,Found,1990.0,27.55,3.86667,H5
Acfer 085,94,Valid,OC,293.0,Found,1990.0,27.58333,3.95,H5
Acfer 086,95,Valid,CC,173.0,Found,1990.0,27.66667,4.18333,CV3
Acfer 087,96,Valid,CC,163.0,Found,1990.0,27.7,4.26667,CR2
Acfer 088,97,Valid,OC,200.0,Found,1990.0,27.75,4.43333,L6
Acfer 089,98,Valid,OC,682.0,Found,1990.0,27.63333,4.3,H5
Acfer 090,99,Valid,OC,290.0,Found,1990.0,27.5,3.83333,H5
Acfer 091,100,Valid,OC,3487.0,Found,1990.0,27.45,4.11667,LL5-6
Acfer 092,101,Valid,OC,244.0,Found,1990.0,27.66667,4.51667,H5
Acfer 093,102,Valid,OC,420.0,Found,1990.0,27.71667,4.13333,L5
Acfer 094,103,Valid,CC,82.0,Found,1990.0,27.73333,4.43333,C2-ung
Acfer 095,104,Valid,OC,104.0,Found,1990.0,27.71667,4.38333,H3.7
Acfer 096,105,Valid,OC,572.0,Found,1990.0,27.61667,4.2,L4-5
Acfer 097,106,Valid,CC,63.0,Found,1990.0,27.51667,3.96667,CR2
Acfer 098,107,Valid,OC,5500.0,Found,1990.0,27.46667,3.88333,H5
Acfer 099,108,Valid,OC,313.0,Found,1990.0,27.45,3.83333,H5
Acfer 100,109,Valid,OC,140.0,Found,1990.0,27.46667,3.95,H6
Acfer 101,110,Valid,OC,452.0,Found,1990.0,27.53333,4.16667,L6
Acfer 102,111,Valid,OC,346.0,Found,1990.0,27.66667,4.46667,L3-5
Acfer 103,112,Valid,OC,665.0,Found,1990.0,27.8,4.5,H5
Acfer 104,113,Valid,OC,992.0,Found,1990.0,27.63333,4.36667,H4/5
Acfer 105,114,Valid,OC,392.0,Found,1990.0,27.55,4.13333,L6
Acfer 106,115,Valid,OC,1390.0,Found,1990.0,27.5,3.9,LL6
Acfer 107,116,Valid,OC,105.0,Found,1990.0,27.45,3.75,L6
Acfer 108,117,Valid,OC,828.0,Found,1990.0,27.5,3.88333,H6
Acfer 109,118,Valid,OC,236.0,Found,1990.0,27.55,3.76667,H4/5
Acfer 110,119,Valid,OC,107.0,Found,1990.0,27.48333,3.8,L6
Acfer 111,120,Valid,OC,987.0,Found,1990.0,27.48333,3.8,H3-6
Acfer 112,121,Valid,OC,216.0,Found,1990.0,27.65,4.03333,LL4/5
Acfer 113,122,Valid,OC,2906.0,Found,1990.0,27.56667,4.03333,LL6
Acfer 114,123,Valid,CC,43.0,Found,1990.0,27.6,3.96667,CR2
Acfer 115,124,Valid,OC,287.0,Found,1990.0,27.73333,4.16667,H6
Acfer 116,125,Valid,OC,345.0,Found,1990.0,27.73333,4.16667,L6
Acfer 117,126,Valid,OC,178.0,Found,1990.0,27.73333,4.2,H4
Acfer 118,127,Valid,OC,752.0,Found,1990.0,27.66667,4.2,L6
Dominion Range 03241,32593,Valid,OC,95.0,Found,2002.0,,,LL6
Acfer 119,128,Valid,OC,121.0,Found,1990.0,27.65,4.23333,H3.8
Acfer 120,129,Valid,OC,861.0,Found,1990.0,27.65,4.3,LL6
Acfer 121,130,Valid,OC,427.0,Found,1990.0,27.68333,4.33333,L5-6
Acfer 122,131,Valid,OC,235.0,Found,1990.0,27.5,3.66667,L4/5
Acfer 123,132,Valid,OC,452.0,Found,1990.0,27.46667,3.76667,H3.9
Acfer 124,133,Valid,OC,542.0,Found,1990.0,27.6,4.05,LL5-6
Acfer 125,134,Valid,OC,3380.0,Found,1990.0,27.68333,4.35,L6
Acfer 126,135,Valid,OC,280.0,Found,1990.0,27.51667,3.8,LL5-6
Acfer 127,136,Valid,OC,699.0,Found,1990.0,27.7,4.3,L6
Acfer 128,137,Valid,OC,163.0,Found,1990.0,27.5,4.3,L6
Acfer 129,138,Valid,OC,162.0,Found,1990.0,27.6,4.2,H3.7
Acfer 130,139,Valid,OC,400.0,Found,1990.0,27.58333,4.0,H5
Acfer 131,140,Valid,OC,171.0,Found,1990.0,27.58333,3.96667,LL6
Acfer 132,141,Valid,OC,1621.0,Found,1990.0,27.5,3.76667,H6
Acfer 133,142,Valid,OC,362.0,Found,1990.0,27.5,3.83333,L3-5
Acfer 134,143,Valid,OC,1161.0,Found,1990.0,27.76667,4.53333,L5
Acfer 135,144,Valid,OC,124.0,Found,1990.0,27.55,4.03333,H5
Acfer 136,145,Valid,OC,324.0,Found,1990.0,27.46667,4.05,H5
Acfer 137,146,Valid,OC,106.0,Found,1990.0,27.58333,4.08333,H4/5
Acfer 138,147,Valid,OC,941.0,Found,1990.0,27.66667,4.08333,L5
Acfer 139,148,Valid,CC,143.0,Found,1990.0,27.56667,4.08333,CR2
Acfer 140,149,Valid,OC,171.0,Found,1990.0,27.56667,4.08333,L5
Acfer 141,150,Valid,OC,58.0,Found,1990.0,27.58333,3.85,H5
Acfer 142,151,Valid,OC,91.0,Found,1990.0,27.56667,4.35,L5
Acfer 143,152,Valid,OC,417.0,Found,1990.0,27.66667,4.45,L6
Acfer 144,153,Valid,OC,186.0,Found,1990.0,27.66667,4.28333,L6
Acfer 145,154,Valid,OC,869.0,Found,1990.0,27.66667,4.28333,L6
Acfer 146,155,Valid,OC,200.0,Found,1990.0,27.63333,4.08333,H5
Acfer 147,156,Valid,OC,140.0,Found,1990.0,27.6,4.11667,L6
Acfer 148,157,Valid,OC,157.0,Found,1990.0,27.58333,4.06667,H5
Acfer 149,158,Valid,OC,394.0,Found,1990.0,27.58333,4.05,L/LL6
Acfer 150,159,Valid,OC,251.0,Found,1990.0,27.56667,3.81667,H5
Acfer 151,160,Valid,OC,218.0,Found,1990.0,27.46667,3.71667,H5
Acfer 152,161,Valid,OC,157.0,Found,1990.0,27.43333,3.75,H5
Acfer 153,162,Valid,OC,211.0,Found,1990.0,27.53333,3.95,H3.6-6
Acfer 154,163,Valid,OC,95.0,Found,1990.0,27.55,4.01667,H5
Acfer 155,164,Valid,OC,206.0,Found,1990.0,27.66667,4.25,L6
Acfer 156,165,Valid,OC,240.0,Found,1990.0,27.66667,4.23333,L6
Acfer 157,166,Valid,OC,1072.0,Found,1990.0,27.66667,4.23333,L6
Acfer 158,167,Valid,OC,422.0,Found,1990.0,27.66667,4.21667,H4/5
Acfer 159,168,Valid,OC,123.0,Found,1990.0,27.5,3.93333,H3.8
Acfer 160,169,Valid,OC,433.0,Found,1990.0,27.46667,3.71667,LL3.8-6
Acfer 161,170,Valid,OC,604.0,Found,1990.0,27.75,4.43333,H5
Acfer 162,171,Valid,OC,1281.0,Found,1990.0,27.66667,4.01667,H3-6
Acfer 163,172,Valid,OC,125.0,Found,1990.0,27.7,4.35,H3.8-5
Acfer 164,173,Valid,OC,43.0,Found,1990.0,27.53333,4.18333,H5
Acfer 165,174,Valid,OC,84.0,Found,1990.0,27.56667,4.33333,H5-6
Acfer 166,175,Valid,OC,2476.0,Found,1990.0,27.51667,4.23333,H3-5
Acfer 167,176,Valid,OC,157.0,Found,1990.0,27.51667,4.0,L5
Dominion Range 03242,32594,Valid,OC,67.2,Found,2002.0,,,H5
Acfer 168,177,Valid,OC,211.0,Found,1990.0,27.6,3.98333,L6
Acfer 169,178,Valid,OC,559.0,Found,1990.0,27.73333,4.11667,H3.8/4
Acfer 171,179,Valid,OC,313.0,Found,1990.0,27.65,4.25,H3.7
Acfer 172,180,Valid,OC,766.0,Found,1990.0,27.66667,4.16667,L6
Acfer 173,181,Valid,OC,262.0,Found,1990.0,27.65,4.03333,H6
Acfer 174,182,Valid,OC,127.0,Found,1990.0,27.48333,3.86667,LL6
Acfer 175,183,Valid,OC,153.0,Found,1990.0,27.48333,3.85,LL5-6
Acfer 176,184,Valid,OC,320.0,Found,1990.0,27.48333,3.85,LL5-6
Acfer 177,185,Valid,OC,721.0,Found,1990.0,27.48333,3.85,LL5-6
Acfer 178,186,Valid,OC,488.0,Found,1990.0,27.48333,3.75,H3.7
Acfer 179,187,Valid,OC,163.0,Found,1990.0,27.46667,3.75,L6
Acfer 180,188,Valid,OC,103.0,Found,1990.0,27.6,4.16667,H3.9-5
Acfer 181,189,Valid,OC,245.0,Found,1990.0,27.66667,4.2,L6
Acfer 182,190,Valid,CC,166.0,Found,1990.0,27.7,4.35,CH3
Acfer 183,191,Valid,OC,114.0,Found,1990.0,27.58333,4.16667,H5
Acfer 184,192,Valid,OC,311.0,Found,1990.0,27.56667,4.01667,H5
Acfer 185,193,Valid,OC,109.0,Found,1990.0,27.53333,3.83333,LL5
Acfer 186,194,Valid,CC,315.0,Found,1990.0,27.46667,3.86667,CR2
Acfer 187,195,Valid,CC,234.0,Found,1990.0,27.46667,3.9,CR2
Acfer 188,196,Valid,OC,252.0,Found,1990.0,27.58333,4.11667,H3.9/4
Acfer 189,197,Valid,OC,53.0,Found,1990.0,27.6,4.18333,H6
Acfer 190,198,Valid,OC,4439.0,Found,1990.0,27.7,4.3,L6
Acfer 191,199,Valid,OC,188.0,Found,1990.0,27.7,4.3,L6
Acfer 192,200,Valid,OC,219.0,Found,1990.0,27.65,4.2,H3.9-5
Acfer 193,201,Valid,OC,157.0,Found,1990.0,27.56667,3.95,LL4-6
Acfer 194,202,Valid,OC,361.0,Found,1991.0,27.49944,3.68889,H5
Acfer 195,203,Valid,OC,233.0,Found,1991.0,27.52472,3.81139,H6
Acfer 196,204,Valid,OC,29.0,Found,1991.0,27.57694,4.03389,H5
Acfer 197,205,Valid,OC,115.0,Found,1991.0,27.55583,4.14,L6
Acfer 198,206,Valid,OC,267.0,Found,1991.0,27.51694,3.79139,H6
Acfer 199,207,Valid,OC,215.0,Found,1991.0,27.48028,3.85139,L4
Acfer 200,208,Valid,OC,1301.0,Found,1991.0,27.50194,3.92111,H3-6
Acfer 201,209,Valid,OC,55.0,Found,1991.0,27.59222,3.91806,L5
Acfer 202,210,Valid,CC,389.0,Found,1991.0,27.50889,4.60167,CO3.5
Acfer 203,211,Valid,OC,292.0,Found,1991.0,27.57806,4.36917,H5
Acfer 204,212,Valid,OC,64.0,Found,1991.0,27.64639,3.98306,H3
Acfer 205,213,Valid,OC,746.0,Found,1991.0,27.7375,4.32806,H5
Acfer 206,214,Valid,OC,1229.0,Found,1991.0,27.69083,4.37861,H5
Acfer 207,215,Valid,CC,105.0,Found,1991.0,27.68806,4.37194,CH3
Acfer 208,216,Valid,OC,510.0,Found,1991.0,27.50472,3.88194,LL5
Acfer 209,217,Valid,CC,475.0,Found,1991.0,27.50472,3.88194,CR2
Acfer 210,218,Valid,OC,720.0,Found,1991.0,27.49722,3.87028,H3.7
Acfer 211,219,Valid,OC,1009.0,Found,1991.0,27.46472,3.78167,H3.9
Acfer 212,220,Valid,OC,1340.0,Found,1991.0,27.61278,3.71361,H5
Acfer 213,221,Valid,OC,526.0,Found,1991.0,27.68111,4.30694,L6
Acfer 214,222,Valid,CC,612.0,Found,1991.0,27.69,4.37861,CH3
Acfer 215,223,Valid,OC,107.0,Found,1991.0,27.64028,4.17056,L5
Acfer 216,224,Valid,OC,293.0,Found,1991.0,27.59972,4.90361,L6
Acfer 217,225,Valid,AOC,174.0,Found,1991.0,27.59444,3.88583,R3.8-5
Dominion Range 03243,32595,Valid,OC,136.9,Found,2002.0,,,H5
Acfer 218,226,Valid,OC,114.0,Found,1991.0,27.54472,3.74306,L6
Acfer 219,227,Valid,OC,2611.0,Found,1991.0,27.52139,3.79139,H6
Acfer 220,228,Valid,OC,117.0,Found,1991.0,27.52417,3.79694,H5
Acfer 221,229,Valid,OC,812.0,Found,1991.0,27.5325,3.81361,H5/6
Acfer 222,230,Valid,OC,334.0,Found,1991.0,27.54194,3.82778,H5/6
Acfer 223,231,Valid,OC,1398.0,Found,1991.0,27.54194,3.82778,L/LL6
Acfer 224,232,Valid,OC,85.0,Found,1991.0,27.63889,3.93444,H5/6
Acfer 225,233,Valid,OC,255.0,Found,1991.0,27.64528,3.94389,H3
Acfer 226,234,Valid,OC,221.0,Found,1991.0,27.68444,3.99389,H5
Acfer 227,235,Valid,OC,78.0,Found,1991.0,27.66861,4.425,H6
Acfer 228,236,Valid,OC,2285.0,Found,1991.0,27.57389,4.11972,L5
Acfer 229,237,Valid,OC,325.0,Found,1991.0,27.82611,4.24611,H5
Acfer 230,238,Valid,OC,69.0,Found,1991.0,27.74056,4.30833,H5
Acfer 231,239,Valid,OC,218.0,Found,1991.0,27.73472,4.31611,H4/5
Acfer 232,240,Valid,OC,725.0,Found,1991.0,27.73944,4.32833,H5
Acfer 233,241,Valid,OC,242.0,Found,1991.0,27.71722,4.44806,H5/6
Acfer 234,242,Valid,NMIM,621.0,Found,1991.0,27.50111,4.09861,"Iron, IAB-ung"
Acfer 235,243,Valid,OC,461.0,Found,1991.0,27.51889,4.01667,H5
Acfer 236,244,Valid,OC,81.0,Found,1991.0,27.51056,3.89111,LL6
Acfer 237,245,Valid,OC,673.0,Found,1991.0,27.49167,3.83278,H3
Acfer 238,246,Valid,OC,311.0,Found,1991.0,27.50361,3.67306,H4/5
Acfer 239,247,Valid,OC,160.0,Found,1991.0,27.48444,3.66639,H6
Acfer 240,248,Valid,OC,342.0,Found,1991.0,27.49833,3.69444,L6
Acfer 241,249,Valid,OC,86.0,Found,1991.0,27.51583,3.72722,L6
Acfer 242,250,Valid,OC,318.0,Found,1991.0,27.52111,3.77333,L6
Acfer 244,252,Valid,OC,2045.0,Found,1991.0,27.52472,3.80972,H6
Acfer 245,253,Valid,OC,75.0,Found,1991.0,27.56389,3.92639,H5
Acfer 246,254,Valid,OC,923.0,Found,1991.0,27.69222,3.32167,L6
Acfer 247,255,Valid,OC,60.0,Found,1991.0,27.63611,4.03139,L4
Acfer 248,256,Valid,OC,402.0,Found,1991.0,27.63556,4.02528,L3.9/4
Acfer 249,257,Valid,OC,99.0,Found,1991.0,27.62167,3.95361,H5/6
Acfer 250,258,Valid,OC,382.0,Found,1991.0,27.55139,3.74194,H6
Acfer 251,259,Valid,OC,202.0,Found,1991.0,27.50972,3.88056,LL5-6
Acfer 252,260,Valid,OC,146.0,Found,1991.0,27.51111,3.88444,L6
Acfer 253,261,Valid,OC,47.0,Found,1991.0,27.51361,3.89694,LL5-6
Acfer 254,262,Valid,OC,99.0,Found,1991.0,27.52222,3.94694,L6
Acfer 255,263,Valid,OC,124.0,Found,1991.0,27.64611,4.39722,L6
Acfer 256,264,Valid,OC,235.0,Found,1991.0,27.64611,4.39722,H5/6
Acfer 257,265,Valid,OC,75.0,Found,1991.0,27.68528,4.50333,H6
Acfer 258,266,Valid,OC,212.0,Found,1991.0,27.67056,4.34611,H6
Acfer 259,267,Valid,OC,114.0,Found,1991.0,27.52444,3.87361,H3-6
Acfer 260,268,Valid,OC,177.0,Found,1991.0,27.47556,3.71028,H5
Acfer 261,269,Valid,OC,73.0,Found,1991.0,27.70917,4.42083,L6
Acfer 262,270,Valid,OC,92.0,Found,1991.0,27.67,4.49722,H4
Acfer 263,271,Valid,OC,438.0,Found,1991.0,27.69111,4.3375,L6
Acfer 264,272,Valid,OC,243.0,Found,1991.0,27.69472,4.30639,LL6
Acfer 265,273,Valid,MG,83.0,Found,1991.0,27.715,4.19278,Mesosiderite
Acfer 266,274,Valid,OC,518.0,Found,1991.0,27.72722,4.17056,L6
Acfer 267,275,Valid,OC,229.0,Found,1991.0,27.51056,3.71306,LL5-6
Acfer 268,276,Valid,OC,764.0,Found,1991.0,27.51389,3.87528,LL4-6
Acfer 269,277,Valid,OC,276.0,Found,1991.0,27.51472,3.86556,LL6
Acfer 270,278,Valid,CC,298.0,Found,1991.0,27.51861,3.85722,CR2
Acfer 271,279,Valid,OC,237.0,Found,1991.0,27.56111,4.05556,H6
Acfer 272,280,Valid,CC,63.0,Found,1991.0,27.57028,4.075,CV3
Acfer 273,281,Valid,OC,2110.0,Found,1991.0,27.62194,4.45556,H5/6
Acfer 274,282,Valid,OC,203.0,Found,1991.0,27.63389,4.18722,H6
Acfer 275,283,Valid,OC,429.0,Found,1991.0,27.63361,4.17306,H5-6
Acfer 276,284,Valid,OC,99.0,Found,1991.0,27.63972,4.14528,H5
Acfer 277,285,Valid,AA,41.0,Found,1991.0,27.63917,4.14278,Ureilite
Acfer 278,286,Valid,OC,72.0,Found,1991.0,27.63861,4.12722,H5
Acfer 279,287,Valid,OC,96.0,Found,1991.0,27.64278,4.06889,H5
Acfer 280,288,Valid,OC,177.0,Found,1991.0,27.53528,3.91278,L6
Acfer 281,289,Valid,OC,165.0,Found,1991.0,27.54222,3.88444,L5
Acfer 282,290,Valid,OC,67.0,Found,1991.0,27.65444,4.27528,H6
Acfer 283,291,Valid,OC,187.0,Found,1991.0,27.70056,4.22944,H5
Acfer 284,292,Valid,OC,120.0,Found,1991.0,27.70611,4.20583,H5
Acfer 285,293,Valid,OC,69.0,Found,1991.0,27.63139,4.10722,H4/5
Acfer 286,294,Valid,OC,407.0,Found,1991.0,27.79472,4.16722,H6
Acfer 287,295,Valid,EC,59.0,Found,1992.0,27.61667,4.19056,E4
Acfer 288,296,Valid,OC,55.0,Found,1992.0,27.59139,3.98806,L5
Acfer 289,297,Valid,CC,76.0,Found,1992.0,27.47417,3.86417,CR2
Acfer 290,298,Valid,OC,213.0,Found,1992.0,27.54528,4.04861,L6
Acfer 291,299,Valid,OC,261.0,Found,1992.0,27.70806,4.24806,H6
Acfer 292,300,Valid,OC,432.0,Found,1992.0,27.71861,4.48611,H5
Acfer 293,301,Valid,OC,198.0,Found,1992.0,27.66583,4.19056,LL6
Acfer 294,302,Valid,OC,457.0,Found,1992.0,27.64972,4.01194,H4
Acfer 295,303,Valid,OC,217.0,Found,1992.0,27.48333,3.91556,LL6
Acfer 296,304,Valid,OC,121.0,Found,1992.0,27.58278,4.0,LL5-6
Acfer 297,305,Valid,OC,43.0,Found,1992.0,27.63361,4.04139,L6
Acfer 298,306,Valid,OC,2000.0,Found,1992.0,27.70917,4.17444,L6
Acfer 299,307,Valid,OC,180.0,Found,1992.0,27.6825,4.42028,LL4
Acfer 300,308,Valid,OC,270.0,Found,1992.0,27.59028,4.15194,H6
Acfer 301,309,Valid,OC,162.0,Found,1992.0,27.52722,3.89806,H4
Acfer 302,310,Valid,OC,95.0,Found,1992.0,27.58694,3.96417,H5
Acfer 303,311,Valid,OC,83.0,Found,1992.0,27.60222,3.98528,H5/6
Acfer 304,312,Valid,OC,60.0,Found,1992.0,27.62361,4.02556,H6
Acfer 305,313,Valid,OC,369.0,Found,1992.0,27.68722,4.18361,L6
Acfer 306,314,Valid,OC,129.0,Found,1992.0,27.42889,3.82,L6
Acfer 307,315,Valid,OC,520.0,Found,1992.0,27.49083,3.89778,L5
Acfer 308,316,Valid,OC,74.0,Found,1992.0,27.55972,4.01028,H5
Acfer 309,317,Valid,OC,185.0,Found,1992.0,27.64556,4.20444,L6
Acfer 310,318,Valid,OC,169.0,Found,1992.0,27.68361,4.25306,H6
Acfer 311,319,Valid,CC,120.0,Found,1992.0,27.50806,3.84417,CR2
Acfer 312,320,Valid,OC,364.0,Found,1992.0,27.57861,3.96889,L5
Acfer 313,321,Valid,OC,78.0,Found,1992.0,27.60056,3.99556,H5
Acfer 314,322,Valid,OC,169.0,Found,1992.0,27.66389,4.09806,H6
Acfer 315,323,Valid,OC,506.0,Found,1992.0,27.69972,4.18611,L/LL6
Acfer 316,324,Valid,OC,126.0,Found,1992.0,27.6875,4.245,H6
Dominion Range 03244,32596,Valid,OC,91.3,Found,2002.0,,,LL5
Acfer 317,325,Valid,OC,878.0,Found,1992.0,27.59278,4.40139,H5
Acfer 318,326,Valid,OC,292.0,Found,1992.0,27.55028,3.99806,H5
Acfer 319,327,Valid,OC,2393.0,Found,1992.0,27.55194,3.81611,L6
Acfer 320,328,Valid,OC,167.0,Found,1992.0,27.46056,3.88806,H5
Acfer 321,329,Valid,OC,157.0,Found,2001.0,27.5455,4.06117,H5
Acfer 322,330,Valid,OC,25.0,Found,2001.0,27.55917,4.093,L5
Acfer 323,331,Valid,OC,117.0,Found,2001.0,27.503,3.8795,LL5
Acfer 324,30428,Valid,CC,69.0,Found,2001.0,27.50083,3.86983,CR2
Acfer 325,332,Valid,OC,32.0,Found,1989.0,27.5,3.61667,LL6
Acfer 326,333,Valid,OC,139.0,Found,1989.0,27.5,3.61667,L6
Acfer 327,334,Valid,OC,745.22,Found,2001.0,27.73333,4.43333,H5
Acfer 328,335,Valid,CC,180.07,Found,2001.0,27.73333,4.21667,CV3
Acfer 329,336,Valid,OC,30000.0,Found,2001.0,27.58333,4.1,L4/5
Acfer 330,337,Valid,OC,490.0,Found,2001.0,27.65,4.03333,L6
Acfer 331,338,Valid,CC,750.0,Found,2001.0,27.58333,4.01667,CM2
Acfer 332,339,Valid,CC,115.02,Found,2001.0,27.73333,4.13333,CO3
Acfer 333,340,Valid,CC,489.0,Found,2001.0,27.56667,4.06667,CO3
Acfer 334,341,Valid,OC,211.25,Found,2002.0,27.65,4.38333,L6
Acfer 335,342,Valid,OC,261.0,Found,2002.0,27.73333,4.43333,H4
Acfer 336,343,Valid,OC,19400.0,Found,2002.0,27.61667,4.06667,L3.8
Acfer 337,344,Valid,OC,360.0,Found,2002.0,27.68333,4.26667,L3.8
Acfer 338,345,Valid,OC,377.6,Found,2002.0,27.71667,4.26667,H6
Acfer 339,346,Valid,OC,400.0,Found,2002.0,27.55,4.2,H5
Acfer 340,347,Valid,OC,173.15,Found,2002.0,27.58333,4.3,L5
Acfer 341,32781,Valid,OC,132.0,Found,2002.0,27.46667,3.83333,L3
Acfer 342,348,Valid,OC,1276.0,Found,2002.0,27.59056,4.66278,L6
Acfer 343,349,Valid,OC,140.0,Found,2002.0,27.619722,4.265,H3-5
Acfer 344,350,Valid,OC,410.0,Found,2002.0,27.73333,4.19833,H3
Acfer 345,351,Valid,OC,53.0,Found,2002.0,27.46472,3.81417,LL5
Acfer 346,352,Valid,OC,546.0,Found,2002.0,27.59056,4.66278,LL6
Acfer 347,353,Valid,OC,1165.0,Found,2001.0,27.68333,4.3,L3
Acfer 348,354,Valid,OC,8750.0,Found,2001.0,27.97933,4.27817,L5
Acfer 349,355,Valid,OC,298.0,Found,2001.0,27.84067,4.31433,H6
Acfer 350,356,Valid,OC,128.0,Found,2001.0,27.672,4.52633,H4
Acfer 351,357,Valid,OC,211.0,Found,2001.0,27.7,4.13333,L6
Acfer 352,358,Valid,OC,873.0,Found,2001.0,27.76667,4.01667,L5
Acfer 353,359,Valid,AA,11935.0,Found,2001.0,27.48917,3.89,Eucrite-cm
Acfer 354,360,Valid,OC,252.0,Found,2001.0,27.5005,3.88233,LL5
Acfer 355,361,Valid,OC,161.0,Found,2002.0,27.58967,3.781,LL5
Acfer 356,362,Valid,EC,120.0,Found,2002.0,27.61233,4.5285,EL6
Acfer 357,363,Valid,OC,62.0,Found,2001.0,27.50083,4.87467,LL5
Acfer 358,364,Valid,OC,70.0,Found,2002.0,27.76667,4.41667,H6
Acfer 359,365,Valid,OC,67.0,Found,2002.0,27.7,4.48333,H6
Acfer 360,30430,Valid,AA,68.0,Found,2002.0,27.48333,3.76667,Ureilite
Acfer 361,366,Valid,OC,138.0,Found,2002.0,27.42958,3.87135,H4
Acfer 362,367,Valid,OC,242.8,Found,2002.0,27.4778,3.70165,H5
Acfer 363,368,Valid,OC,389.9,Found,2002.0,27.58163,4.29388,LL4
Acfer 364,30431,Valid,OC,656.0,Found,2002.0,27.7,4.51667,LL6
Acfer 365,30432,Valid,OC,1456.0,Found,2002.0,27.60933,3.93567,L5
Acfer 366,32782,Valid,CC,1456.0,Found,2002.0,26.60933,3.93567,CH3
Acfer 367,30433,Valid,OC,410.0,Found,2002.0,27.68433,4.42917,H5
Acfer 368,30434,Valid,OC,126.0,Found,2002.0,27.68883,4.386,H4
Acfer 369,30435,Valid,OC,122.0,Found,2002.0,27.667,4.64833,H4
Acfer 370,32783,Valid,UN,129.0,Found,2002.0,27.6725,4.35667,Chondrite-ung
Acfer 371,34017,Valid,OC,9608.0,Found,2002.0,27.67817,4.46533,L5
Acfer 372,30436,Valid,OC,238.0,Found,2002.0,26.61167,3.887,LL6
Acfer 373,30437,Valid,OC,128.0,Found,2002.0,26.62583,3.94433,H5
Acfer 374,32784,Valid,CC,118.0,Found,2002.0,26.60867,4.053,CO3
Acfer 375,30438,Valid,OC,495.0,Found,2002.0,27.5085,3.76383,LL6
Acfer 376,30439,Valid,OC,132.0,Found,2002.0,27.6395,3.935,H6
Acfer 377,30440,Valid,OC,132.0,Found,2002.0,27.6625,3.97683,L4
Acfer 378,35480,Valid,OC,1320.0,Found,2003.0,27.4,3.75,LL6
Acfer 379,35338,Valid,OC,14764.0,Found,2004.0,27.4114,3.70467,H4
Acfer 380,35481,Valid,OC,849.0,Found,2002.0,27.76667,4.41667,H5
Acfer 381,35482,Valid,OC,292.0,Found,2002.0,27.7,4.45,L6
Acfer 382,35483,Valid,OC,101.0,Found,2002.0,27.63333,3.93333,H5
Acfer 386,44851,Valid,OC,200.0,Found,2004.0,27.36017,3.7,L5
Acfer 387,44852,Valid,OC,177.0,Found,2004.0,27.558,4.015,H4-6
Acfer 388,44853,Valid,OC,1072.0,Found,2004.0,27.61667,3.86667,H4
Acfer 389,44854,Valid,OC,397.0,Found,2004.0,27.504,3.68167,H5
Acfer 390,44855,Valid,OC,578.0,Found,2004.0,27.5025,3.693,H4
Acfer 391,53622,Valid,OC,388.0,Found,2004.0,27.59617,4.172,H4
Acfer 392,54591,Valid,OC,74.0,Found,1997.0,27.51667,3.86667,H~5
Acfer 393,54592,Valid,OC,74.0,Found,1997.0,27.58333,4.03333,H~6
Acfer 394,53886,Valid,CC,364.0,Found,2001.0,27.51867,3.88033,CR2
Acfer 395,53887,Valid,CC,394.0,Found,2001.0,27.50917,3.88767,CR2
Acfer 396,53888,Valid,CC,148.0,Found,2001.0,27.512,3.89783,CR2
Acfer 397,53889,Valid,CC,105.0,Found,2001.0,27.509,3.89583,CR2
Acfer 398,55262,Valid,CC,97.0,Found,2001.0,27.50217,3.86083,CR2
Acfer 399,55263,Valid,CC,89.0,Found,2001.0,27.50267,3.8725,CR2
Acfer 400,55264,Valid,CC,101.0,Found,2001.0,27.50083,3.86617,CR2
Acfer 401,56305,Valid,OC,9.0,Found,2002.0,27.68917,4.44267,L5
Achilles,369,Valid,OC,16000.0,Found,1924.0,39.77667,-100.81333,H5
Ackerly,55379,Valid,OC,3046.0,Found,1995.0,32.59033,-101.77217,L5
Acme,371,Valid,OC,75000.0,Found,1947.0,33.63333,-104.26667,H5
Acomita,372,Valid,P,3956.0,Found,1962.0,35.05,-107.56667,"Pallasite, PMG"
Acuña,373,Valid,MIM,217700.0,Found,1981.0,29.31667,-100.96667,"Iron, IIIAB"
Adalia,374,Valid,AA,1.0,Found,1883.0,36.9,30.68333,Eucrite-mmict
Adam Talha,44856,Valid,OC,259.3,Found,2005.0,22.9935,-10.15367,LL3.2
Adams County,375,Valid,OC,5700.0,Found,1928.0,39.96667,-103.76667,H5
ad-Dahbubah,376,Valid,OC,90000.0,Found,1961.0,19.83333,51.25,H5
Adelaide,377,Valid,CC,2031.0,Found,1972.0,,,C2-ung
Adelie Land,378,Valid,OC,1000.0,Found,1912.0,-67.18333,142.38333,L5
Admire,380,Valid,P,180000.0,Found,1881.0,38.7,-96.1,"Pallasite, PMG"
Adrar 001,381,Valid,OC,1917.0,Found,1990.0,28.05,0.16667,H4/5
Adrar 002,382,Valid,OC,407.0,Found,1990.0,27.81667,0.13333,L5
Adrar 003,383,Valid,OC,287.0,Found,1990.0,27.13333,0.2,L/LL3.10
Adrar Bous,384,Valid,EC,360.0,Found,2001.0,20.5,9.0,EL5
Adrar Chiriet,44703,Valid,OC,926.0,Found,2003.0,19.64008,9.35545,L6
Adrar Madet,385,Valid,OC,1113.0,Found,1997.0,18.5,10.4,H5/6
Adrar Madet 002,386,Valid,OC,2200.0,Found,2002.0,18.61042,10.4941,LL3
Adrar Yaouelt,387,Valid,OC,2730.0,Found,2002.0,17.67987,10.03503,H5
Adrian,388,Valid,OC,22600.0,Found,1936.0,35.15,-102.71667,H4
Adzhi-Bogdo (iron),389,Valid,NMIM,582000.0,Found,1952.0,44.86667,95.41667,"Iron, IAB complex"
Aggie Creek,393,Valid,MIM,43000.0,Found,1942.0,64.88333,-163.16667,"Iron, IIIAB"
Agoudal,57354,Valid,MIM,100000.0,Found,2000.0,31.98457,-5.51528,"Iron, IIAB"
Agoult,395,Valid,AA,82.0,Found,2000.0,30.55,-4.9,Eucrite
Agua Blanca,397,Valid,MIM,49000.0,Found,1938.0,-28.91667,-66.95,"Iron, IIIAB"
Aguas Calientes,399,Valid,OC,260.1,Found,1971.0,-25.5,-68.4,H
Aguemour 001,400,Valid,OC,896.0,Found,1990.0,26.96667,4.45,H5
Aguemour 002,401,Valid,OC,236.0,Found,1990.0,26.96667,4.4,L6
Aguemour 003,402,Valid,OC,809.0,Found,1990.0,27.36667,4.5,L6
Aguemour 004,403,Valid,OC,1137.0,Found,1990.0,27.33333,4.5,H5
Aguemour 005,404,Valid,OC,859.0,Found,1991.0,27.43583,4.63861,H5
Aguemour 006,405,Valid,OC,435.0,Found,1992.0,27.57639,4.52528,L6
Aguemour 007,406,Valid,OC,334.0,Found,1992.0,27.50778,4.60167,H4
Aguemour 008,407,Valid,OC,79.0,Found,1992.0,27.47889,4.19806,L4
Aguemour 009,408,Valid,OC,1446.0,Found,1992.0,27.42861,4.12417,L3.8
Aguemour 010,409,Valid,OC,367.0,Found,1993.0,27.36056,4.94472,H5
Aguemour 011,410,Valid,OC,207.0,Found,1993.0,27.35028,4.2025,H4
Aguemour 012,411,Valid,OC,347.0,Found,1993.0,27.5175,4.19111,H5
Aguemour 013,412,Valid,OC,364.0,Found,1993.0,27.56972,4.52556,L5
Aguemour 014,413,Valid,OC,167.0,Found,1993.0,27.57806,4.3225,L5
Aguemour 015,414,Valid,OC,1106.0,Found,1993.0,27.50972,4.16111,L4
Aguemour 016,415,Valid,OC,177.0,Found,1993.0,27.59167,4.31694,L5
Aguemour 017,416,Valid,OC,1000.0,Found,2001.0,27.4,4.35,L6
Ahumada,419,Valid,P,52600.0,Found,1909.0,30.7,-105.5,"Pallasite, PMG"
Aiken,421,Valid,OC,956.0,Found,1936.0,34.2,-101.5,OC
Ainsworth,422,Valid,MIM,80650.0,Found,1907.0,42.6,-99.8,"Iron, IIAB"
